stop_id,stop_code,stop_name,stop_desc,stop_lat,stop_lon,location_type
113cd856-024a-41f6-afb2-01c27eed19d1,"BUS373","Tippecanoe Mall Entrance E - BUS373","""Tippecanoe Mall Entrance E BUS373""",40.39168,-86.84966,0
b334ed41-3b1d-46c2-9a0d-8348c1b4d93a,"BUS676","Sears at Tippecanoe Mall - BUS676","",40.39185,-86.84846,0
57636584-e48b-4acf-9878-0e8512883efe,"BUS671","Wendy's at Tippecanoe Mall (North Side) - BUS671","",40.393337,-86.84857,0
c6bebe5c-e8e9-4dcd-a43d-66cb35152bd4,"BUS677","SR 38/25 & Kingsway Dr (North of, East) - BUS677","",40.3945181008886,-86.8488655596295,0
8f8fd079-c2f0-4ebd-b267-b7b678a1f2ed,"BUS462","SR 38/25 @ Lafayette Marketplace - BUS462","",40.39735,-86.85272,0
9991ba19-91fe-4d7c-b952-3ec9a32d3013,"BUS946","SR 38/25 @ Golden Lion - BUS946","",40.3996277093665,-86.8558674666802,0
ff43a1a9-cb20-40fa-966a-7b5581e3779d,"BUS678","Main St & Sagamore Pkwy S (NW Corner) - BUS678","",40.4015334189852,-86.8585161482404,0
b5dcca69-10d8-4af5-9582-105827eee681,"BUS506","Main St & McCarty Ln (Southeast of) - BUS506","",40.4027109088129,-86.8602609253085,0
7ce7f126-d577-4314-b8e8-8a86c03595db,"BUS531NE","Main St &  Earl Ave (Northeast of) - BUS531NE","",40.4051584246849,-86.8636633076467,0
80d4f388-91e4-4a65-86f7-e7db377713d9,"BUS664NE","Main St & 28th St (Northeast of) - BUS664NE","",40.4064941648539,-86.8655958393571,0
adcff4de-cc5b-478b-9cfd-92c9cd7d2257,"BUS663NE","Main St & 25th St (NE Corner) - BUS663NE","",40.4080350940248,-86.8677053968731,0
23aa6b72-7296-4133-8dca-9763f5ec677c,"BUS216E","Main St & 24th St (Northeast of) - BUS216E","",40.409679288249,-86.8699262660698,0
025baaeb-61b4-413c-8db6-03d07d402635,"BUS191","Frozen Custard on Main St (at Shelter) - BUS191","""Frozen Custard on Main St (at Shelter) BUS191""",40.4110431916143,-86.871472559659,0
a76ad88b-1b59-44a7-806c-69532eac1c45,"BUS408","Main St & 21st St (Northeast of) - BUS408","",40.412350768587,-86.8729289992409,0
2481eec7-1067-4a91-b72a-9d6a51ab3312,"BUS482SE","Main St & Scott St (Southeast Corner) - BUS482SE","",40.4138139136919,-86.874625496544,0
53786201-6067-49ad-a9f4-03f0f63c6f00,"BUS444NE","Main St & Jackson St (North of) - BUS444NE","",40.4155922183747,-86.8765070662801,0
ffead42e-2f78-4965-b1ab-5a5057da40c0,"BUS391NE","Alabama St & Main St (NE Corner) - BUS391NE","""Alabama St & Main St (NE Corner) BUS391NE""",40.4165229449584,-86.8776282297151,0
0f70cb50-6bc6-41bd-8937-747c797f628f,"BUS158","Main St & South St (SE Corner) - BUS158","",40.4172699402135,-86.8784208225263,0
46963c7f-f227-45bc-9194-530ff208ecfc,"BUS305","Columbia St & 14th St (NE Corner) - BUS305","",40.4182730864449,-86.8811808157671,0
43a2e733-581f-4ac0-8c07-bebcaba03e4c,"BUS309","Columbia St & 12th St (NE Corner) - BUS309","",40.4182704042358,-86.8837704887253,0
b620566f-82d4-45c2-a3b6-119c6cd9f649,"BUS242","Columbia St & 9th St (NE Corner) - BUS242","",40.4182636987128,-86.8867329887589,0
c267e647-dd53-4650-b9ec-912c99649777,"BUS243N","Columbia St & 7th St (NE Corner) - BUS243N","",40.4182569931899,-86.8886199229133,0
2b45df38-a3ef-4cf2-8988-83a214099725,"BUS674","Columbia St & 6th St (NE Corner) - BUS674","",40.4182543109807,-86.8905859822384,0
3f5b3dd0-4bfa-408e-9cc0-1a2e522e79c6,"BUS675","Columbia St & 5th St (NE Corner) - BUS675","",40.4182569931899,-86.8918090696221,0
1cd156db-5032-403d-8441-36eb9369f66c,"BUS248","Columbia St & 4th St (NE Corner) - BUS248","",40.418259675399,-86.8930415447379,0
d6eda155-c8ee-4f39-8ae6-e0ec6d6a29aa,"BUS215","CityBus Center - BUS215","",40.4206991446435,-86.89494,0
02dcd756-5ca9-4a48-9b0a-e8eeaeb80be5,"BUS282NE","MacArthur Dr & 1st St (NE Shelter) - BUS282NE","""MacArthur Dr & 1st St (NE Shelter) BUS282NE""",40.4255968585966,-86.9256679371398,0
baf2496e-ab14-4cf6-b7f9-100c8967daee,"BUS366","Jischke Dr & 3rd St (SW Corner) - BUS366","""Jischke Dr & 3rd St (SW Corner) BUS366""",40.4273416356648,-86.9219906283611,0
c62a2283-9aa4-4637-a95c-16234b4b9253,"BUS362","Wiley Dining/RSC on Jischke Dr - BUS362","",40.4290502029091,-86.9215319705922,0
835d2632-681d-4610-a915-f143fd271a36,"BUS201","Jischke Dr & Stadium Ave (SE Corner) - BUS201","""Jischke Dr & Stadium Ave (SE Corner) BUS201""",40.4313729960545,-86.9214917374546,0
88e24a75-f8e7-48b5-a4d3-a315310e98dc,"BUS567","Ford Hall on Stadium Ave - BUS567","""Ford Hall on Stadium Ave BUS567""",40.4313300807077,-86.9197469603864,0
0639dec0-abd3-4711-8d38-7c2730a48a4b,"BUS273","Waldron St & Stadium Ave - BUS273","""Waldron St & Stadium Ave BUS273""",40.4313729960545,-86.9179606090761,0
9d032aba-bd2d-4a81-a686-068b96e2a3c0,"BUS190","Armstrong Hall on Stadium Ave (@Shelter) - BUS190","",40.4313300807077,-86.915305221993,0
9daffb05-a5f4-4aae-bd55-d2fb195931cb,"BUS557","Physics - BUS557","""Physics BUS557""",40.4304100829607,-86.913209075523,0
9e807f07-9859-466c-ba03-532d8d46b1af,"BUS412","Northwestern Ave & Columbia St (NW of) - BUS412","",40.4249893382185,-86.908021682979,0
d7264d57-df67-4d22-8eff-f3ea0c276d14,"BUS271","PMU on State St - BUS271","""PMU on State St BUS271""",40.424095,-86.911233,0
d658559b-6e78-4db2-b025-cacb9aa5d10a,"BUS448","Stewart Center - BUS448","""Stewart Center BUS448""",40.42533,-86.91364,0
ae4abd2f-073d-44cd-9dca-32e524cd346d,"BUS435","Class of 1950 - BUS435","""Class of 1950 BUS435""",40.42581,-86.91485,0
d293c42a-ab8d-428e-8999-caf3b3040e17,"BUS560NW","Stone Hall on Oval Dr - BUS560NW","""Stone Hall on Oval Dr BUS560NW""",40.4242463662771,-86.9149605581141,0
ef82891e-6aff-459d-8ce8-85bcd0a1ca9d,"BUS547","State St & Russell St (NE Corner) - BUS547","",40.4242477073817,-86.9190147172817,0
6e75e04a-261a-47f8-ae9f-3d984fc3ae15,"BUS520","1st St & Jischke Dr (East Corner) - BUS520","",40.4252682879727,-86.921880657785,0
202811b2-5e04-4fc4-8c82-b842344aff7e,"BUS568","Earhart Hall on First St - BUS568","",40.4253836229672,-86.9238266005413,0
45a3ec4b-375e-49ff-a00f-10be3a68f248,"BUS397SE","11th St & Main St (at Trolley Station) - BUS397SE","""11th St & Main St (at Trolley Station) BUS397SE""",40.4187934350248,-86.8848769000099,0
b1fcbf0d-3013-4e0b-9c84-b7f9a7403839,"BUS339","Main St & 9th St (East of) - BUS339","",40.4191461455313,-86.8865304819662,0
9b332eb2-a4d3-497f-b6b0-84b796a67175,"BUS349","Main St & 8th St (NE Corner) - BUS349","",40.4191662621001,-86.8877187006306,0
de23dd8e-86b1-4ff6-bcad-bb3931b985fd,"BUS350","Main St & 6th St (NE Corner) - BUS350","",40.4191702854139,-86.8904880816035,0
2ccca2c4-b4e8-42f6-904c-545b4f9deafc,"BUS364","Main St & 5th St (NE Corner) - BUS364","",40.4191716265185,-86.8916990990459,0
436d1f19-d401-4d31-aff9-5d92c03acb1c,"BUS371","Main St & 4th St (NE Corner) - BUS371","",40.419156874368,-86.8930080171232,0
26584e58-f095-4787-a559-cd0e13c527f8,"BUS287","2nd St & Columbia St (NE Corner) - BUS287","""2nd St & Columbia St (NE Corner) BUS287""",40.4182395588302,-86.895391159975,0
5448d67e-f6f8-4f72-bda5-80315d3e0362,"BUS122","Wabash Landing on State St (Scotty's) - BUS122","",40.4202404868746,-86.9007663071612,0
2ac3f79d-0ffa-43a1-947b-2bb915327ee4,"BUS156","State St & Roebuck Dr (NW Corner/Wendy's) - BUS156","",40.4213294637996,-86.9023327173193,0
3abcd53d-d9d4-4b49-9294-7fb29b06e01f,"BUS581","State St & Littleton St (SE Corner) - BUS581","",40.4225377990328,-86.9052321854372,0
735d2da0-f098-409d-8db0-e6e2b87477f9,"TEMP6","Rawls Hall on Pierce St (S of at Sidewalk) - TEMP6","",40.4234336568972,-86.9091951494929,0
e607879a-2c64-432e-9c18-c355617f19a7,"TEMP2","Chauncey Ave & Williams St (NW Corner) - TEMP2 ","",40.4185869049184,-86.909097248858,0
5b4f1697-21cf-43f5-bcac-4d8ee7ac4b42,"BUS290","Williams St & Grant St (NE Corner) - BUS290","",40.418565447245,-86.9101768380509,0
8afb9b54-7e0d-48c1-b863-56ddf645f5fb,"BUS294","Grant Street Station Apts (@ Shelter) - BUS294","",40.419816697825,-86.9101728147371,0
7cfe5a39-4210-4e01-ae3e-b957a9090974,"BUS320","Grant St & Wood St (SE Corner) - BUS320","""Grant St & Wood St (SE Corner) BUS320""",40.4220576835905,-86.9102130478748,0
777d1014-ed09-4712-95cb-452ce5924d0a,"BUS154","Young Hall on Grant St - BUS154","""Young Hall on Grant St BUS154""",40.4234282924788,-86.9102787619995,0
afd4d913-9e1d-4548-bc86-e1b5dc2b40de,"BUS898","First Street Towers on State St - BUS898","",40.4243254914478,-86.9233679427724,0
60edc80b-3ea5-4a12-b74e-f77978d67291,"BUS549S","Fowler House Apts on Ferry St - BUS549S","""Fowler House Apts on Ferry St BUS549S""",40.4200218868269,-86.8928752477691,0
cd55d25b-692b-4f41-8b98-482966171aa9,"BUS534S","Ferry St & 6th St (SW Corner) - BUS534S","",40.4200178635131,-86.8907039994421,0
491dfffb-b5d2-4e7c-82eb-efc7acea4f6c,"BUS410SE","6th St & Brown St (SW Corner) - BUS410SE","""6th St & Brown St (SW Corner) BUS410SE""",40.4218109203464,-86.8906168276439,0
e0c8304f-b1df-4d3a-8c05-4fdbfc0ae46d,"BUS745","6th St & Cincinnati St (SE Corner) - BUS745","",40.4226598395502,-86.8906315797944,0
1a777eec-1e93-426c-b7d5-9cf3b6fbd0b9,"BUS746","Tippecanoe Co. Health Dept. on 6th St - BUS746","",40.4233344151577,-86.8906288975852,0
0816a3b3-3a68-491e-9652-63729fd2f9d1,"BUS328","6th St & Union St (SE Corner) - BUS328","",40.4246527209671,-86.8906651074091,0
fa827df8-9652-4a9b-b324-14e9139e46fc,"BUS818","Union St & 8th St (SW Corner) - BUS818","",40.4246607675946,-86.8884120517023,0
2bc6122e-d1ed-4c09-8c64-13e449f2a4ee,"BUS367E","Union St & 9th St (East of) - BUS367E","",40.4246875896864,-86.8866699568432,0
bcf08d46-1a7f-4b89-b508-6404ed0e8bec,"BUS821","Union St & 12th St (SW Corner) - BUS821","",40.4246728375359,-86.8841567268465,0
48d0a940-6f27-4b92-9f7b-2f3072dff51c,"BUS401","Union St & 14th St (SW Corner) - BUS401","",40.4246714964313,-86.8822818626333,0
a87bb669-4d97-4c9a-9b49-047ea37947d9,"BUS822","Union St & 15th St (East of) - BUS822","",40.4246795430589,-86.8809461224643,0
8713f55d-cc26-466a-8fcf-6c9e631345e9,"BUS441","Union St & 18th St (SW Corner) - BUS441","",40.4246728375359,-86.8773573265885,0
65ec188f-ec58-46db-89d6-f59953437588,"BUS134","Howarth Center - BUS134","""Howarth Center BUS134""",40.4230152322659,-86.8771990762472,0
6f0670d0-afe7-47fc-a235-cfbb9a64a395,"BUS454","Stonecrest Apartments (at Shelter) - BUS454","""Stonecrest Apartments (at Shelter) BUS454""",40.424688930791,-86.8762509153039,0
ec8058de-e61b-4541-9284-acc97149c1db,"BUS848","21st St & Union St (Northeast of) - BUS848","",40.4251073554222,-86.8728243930831,0
ffdf9679-c019-4751-9511-af7a47a40c33,"BUS825","21st St & Cobblestone Ct (SE Corner) - BUS825","",40.4263210550738,-86.8728029354097,0
216e22a9-b5d0-422f-abcf-440fcdbc8ef9,"BUS325SE","21st St & Elmwood Ave (SE Corner) - BUS325SE","",40.4285902040357,-86.8728887661033,0
a9744696-389e-4848-80e9-a2b6fbd6e55c,"BUS132","Rainbow Dr & Elmwood Ave (SW Corner) - BUS132","""Rainbow Dr & Elmwood Ave (SW Corner) BUS132""",40.429232593133,-86.8717246873214,0
cd62cb16-f4b1-4484-ba50-1289fdf5ac9c,"BUS835","Market Square Shopping Center - BUS835","",40.4307,-86.8707,0
7d1b51cd-8368-4b1f-879b-14dda9c97439,"BUS345","Lilly Hall on State St (at Shelter) - BUS345","",40.4240921392496,-86.9171948383567,0
2312678a-d20f-48f0-84ec-ca8ef3808264,"BUS313SW","State St & Marsteller St (SW Corner) - BUS313SW","",40.4240411772753,-86.9138018437506,0
bc480954-0df2-4711-8363-0164c92e720f,"BUS184","Grissom Hall on Grant St (at Shelter) - BUS184","""Grissom Hall on Grant St (at Shelter) BUS184""",40.4265141741344,-86.91029351415,0
5f88b87f-c58c-4ea6-b751-1c83758c546b,"BUS295","Wang Hall on Northwestern (at Crosswalk) - BUS295","",40.429638947823,-86.911990011453,0
8791752d-5d29-463e-b811-39b6e3886d29,"BUS105","Northwestern Ave & Evergreen St(SE Corner)- BUS105","",40.4323090870565,-86.9149323949178,0
d4434380-00a6-4538-b282-1a4220b37e5f,"BUS284","Northwestern Ave & Meridian St(SE Corner)-BUS284","",40.4339894911045,-86.9151268550829,0
40394175-bee2-49c8-b884-cc277b41bcb8,"BUS203","Northwestern Ave & Northridge Dr(SE Corner)-BUS203","",40.4367950819013,-86.9154983410536,0
f12ed553-fe49-49d8-b287-c0c43e46c8c5,"BUS901","Northwestern Ave & Hillcrest Rd(SE Corner)- BUS901","",40.4403731489404,-86.9181657980779,0
7ebdd1b9-1c80-40e9-bc07-9fd74e12d40e,"BUS632","Northwestern Ave & Garden St (SE Corner) - BUS632","",40.4426905776674,-86.9193245124414,0
aa046f60-a8f0-4fb3-8684-d8873bf1ee43,"BUS126","Northwestern Ave & Elm Dr (SE Corner) -  BUS126","",40.444687482398,-86.9204952967462,0
845f3717-1b9b-4877-8d97-cb278ace357f,"BUS375SE","Lindberg Rd & Northwestern (Southeast) - BUS375SE","",40.4459306863505,-86.9210692895096,0
e989d635-8ae1-4538-9d3c-a56ee4be8052,"BUS102NE","(North of) Carlisle Rd & Lindberg Rd - BUS102NE","""(North of) Carlisle Rd & Lindberg Rd BUS102NE""",40.4459695783835,-86.919195766401,0
1a93c802-f7c0-49ec-962b-ceaad532130b,"BUS623SE","Carlisle Rd & Windsor Dr (SE Corner) - BUS623SE","",40.4478900401527,-86.9194760572598,0
526b1b9b-9413-4cdb-b112-4cdb4e7d92e7,"BUS624E","Carlisle Rd & Sycamore Ln (SE Corner) - BUS624E","",40.4503563314889,-86.9193593811607,0
080664a7-cdb0-45b1-8d03-cb589aebd8e8,"BUS101NE","Mayfair Village Apts on Sycamore Ln - BUS101NE","""Mayfair Village Apts on Sycamore Ln BUS101NE""",40.4521225662305,-86.9216633988418,0
76c48d16-b82c-4037-9c5a-355273c45931,"BUS104N","Anthrop Dr & Yeager Rd (NE Corner) - BUS104N","",40.4520260067002,-86.924451555279,0
f4bece5f-b95a-4fc2-8fc4-fd604788e3fd,"BUS100E","Beau Jardin Apts on Yeager (SE Corner) - BUS100E","""Beau Jardin Apts on Yeager Rd (SE Corner) BUS100E""",40.4546666416327,-86.9244730129524,0
ee73e467-c6d8-4b27-a77d-5ca68d5012eb,"BUS626SE","Yeager Rd & Montgomery St (SE Corner) - BUS626SE","",40.4585866903416,-86.924490447312,0
7cc84e3d-55a3-42a2-9f1a-716d6f6bcaa6,"BUS218SE","Yeager Rd & Cumberland Ave (SE Corner) - BUS218SE","""Yeager Rd & Cumberland Ave (SE Corner) BUS218SE""",40.4604360735676,-86.9244582608019,0
1b3299cb-92cb-4974-b785-5011fc803524,"BUS119","Country Villa Apts on Yeager (SE Corner) - BUS119","""Country Villa Apts on Yeager Rd (SE Corner) BUS119""",40.4619220174505,-86.9244850828937,0
4185966d-9c0e-4873-82e0-1e0434678f50,"BUS118SE","Yeager Rd & Roxboro St (SE Corner) - BUS118SE","",40.4649435260858,-86.924497152835,0
68c5d51f-129a-48a1-9caa-9ab894db11a4,"BUS117SE","Yeager Rd & Kalberer Rd (SE Corner) - BUS117SE","",40.4677719156606,-86.9245025172533,0
4d1af9ed-6134-4aba-8b1b-a2cef1d79591,"BUS945NE","Kalberer Rd & Kent Ave (NE Corner) - BUS945NE","",40.4678899328643,-86.9316975433646,0
f9dc58c1-b6c4-4e2f-ab4e-c7b855043606,"BUS944N","West View Apts on Kalberer Rd (North) - BUS944N","",40.4678885917597,-86.9340377708696,0
9fc77a93-f2ef-4ce3-9c71-cbc4f526b2c5,"BUS115N","Kalberer Rd & Morehouse Rd (NE Corner) - BUS115N","",40.4677880089157,-86.938840266397,0
56fdafe3-33c2-4d21-addd-69b2ff38cba4,"BUS114E","Country Squire Apts on Morehouse (East) - BUS114E","",40.4691773932682,-86.9387061559383,0
0bf7b117-1c94-4088-a668-2f471f422fbf,"BUS113NE","Morehouse Rd & Ellison Dr (East Side) - BUS113NE","",40.4708001298189,-86.93884697192,0
554f7689-f633-4a1d-899d-b655d03babb6,"BUS631E","Morehouse Rd & Abnaki Dr (East) - BUS631E","",40.4744479342966,-86.938885863953,0
0963243b-e39d-41fd-a4fd-55b0a50e0957,"BUS112SE","Morehouse Rd & Mason Dixon Dr (SE Corner)-BUS112SE","",40.4777322994311,-86.9388335608741,0
442a4ffc-9297-456a-a829-3fa887ba0b56,"BUS627","Mason Dixon Dr & Vicksburg Ln (SW Corner) - BUS627","",40.4777349816403,-86.9362586400663,0
223f562b-34e8-4d39-bd2f-b6f6e81d7092,"BUS110SE","Mason Dixon Dr & Shining Armor(SE Corner)-BUS110SE","",40.479334919413,-86.934566166077,0
cdd1cf76-7408-41f1-842d-59b2544a0db9,"BUS628","Mason Dixon Dr & Roundtable Dr (SE Corner)- BUS628","",40.4808329332371,-86.9345540961357,0
25c9b61a-a0b1-4ee8-8601-2fafe80ee100,"BUS157","Roundtable Dr & Shining Armor Ln(SW Corner)-BUS157","",40.4808450031784,-86.9311771947847,0
3e66ad37-ab5e-4b15-8ab7-1e3b78519552,"BUS584NW","Jischke Dr & 1st St (NW Corner) - BUS584NW","""Jischke Dr & 1st St (NW Corner) BUS584NW""",40.4253433898296,-86.9220818234731,0
6944d05d-818d-409f-b81a-198f1f8b7da5,"BUS321","Dauch Alumni Center at Wood & Grant (SW) - BUS321","",40.422065730218,-86.9106717056436,0
cb769ba8-17a4-4087-8b0d-670b4e32d5f0,"BUS322","Grant St & Harrison St (NW Corner) - BUS322","",40.4204054427389,-86.9103793448436,0
3c76c246-e5e9-41f9-bace-81f8761169f8,"BUS323","Grant St & Williams St (NW Corner) - BUS323","",40.4185332607349,-86.9103055840913,0
d804fa23-3681-4bad-bd32-b9afc5fd8f3d,"BUS523","(South of) Chauncey Ave & Harrison St - BUS523","",40.4195887100451,-86.9085085039442,0
203aa5bf-205d-49a7-826b-71dcf9225488,"BUS326","Chauncey Ave & Wood St (SE Corner) - BUS326","",40.421942348596,-86.9074423257972,0
4a61b291-295c-4177-b357-8660802c4703,"BUS644","River Market on State St - BUS644","",40.421565498207,-86.90325673838,0
6c290f92-3937-457e-b550-0b55171d9d48,"BUS458","State St & Tapawingo Dr (SW Corner) - BUS458","",40.4196356487057,-86.900539660486,0
5df5fc5e-47a8-405a-a1dd-31b7c9884ff4,"TEMP3","4th & Columbia (SE Corner) - TEMP3","",40.4181550692412,-86.8930402036333,0
1e67b2ae-a673-45c3-9008-9cce4963aca4,"BUS379","Main St & 4th St (SW Corner) - BUS379","",40.419117982335,-86.8930764134572,0
e3746864-08d7-425f-b941-5c6641293123,"BUS363","Main St & 5th St (SW Corner) - BUS363","",40.4190965246616,-86.8919485444992,0
a660739b-6bad-420f-9d0f-b33bbf0caa3a,"BUS358","Main St & 6th St (SW Corner) - BUS358","",40.4191327344854,-86.8907361859522,0
051027bb-8f43-4a8b-91b7-2b7729357690,"BUS355","Main St & 7th St (SW Corner) - BUS355","",40.4191300522762,-86.8887312345941,0
c7a94891-d04d-4df3-be99-29b553cd4dbf,"BUS334","Main St & 9th St (SW Corner) - BUS334","""""",40.4191018890799,-86.8868107728249,0
8e655d8b-91ea-42c7-88e0-205e7ac4b3c6,"BUS064","University Hall - BUS064","",40.4255,-86.91495,0
3a791945-fff0-4541-b245-7e805da7fc85,"BUS805","Russell St & 2nd St (NE Corner) - BUS805","",40.4264524833234,-86.9190388571643,0
e935d067-989b-46f1-ae3f-ec8fe14e8ad3,"BUS332N","Black Cultural Center on 3rd St - BUS332N","""(West of) Russell St & 3rd St - BUS332N""",40.4273282246189,-86.9192681860488,0
bf9bb4e3-04d7-438b-9fe1-d6018d3011dc,"BUS107","Jischke Dr & 3rd St (NE Corner) - BUS107","""Jischke Dr & 3rd St (NE Corner) BUS107""",40.4273872332208,-86.9219235731318,0
e29c2cbd-a0fb-442e-8d9f-45507ccca210,"BUS473","Hillenbrand Hall on 3rd St - BUS473","",40.4274194197309,-86.925348754248,0
53e899dc-c6fe-44fd-99fb-74292dd43bd6,"BUS491W","McCutcheon Hall on McCutcheon - BUS491W","""McCutcheon Hall on McCutcheon BUS491W""",40.4256545260939,-86.9290126519807,0
cdc3afea-194e-40d1-8221-a4a3f6627fbc,"BUS417SW","Airport Rd & Nimitz Dr (SW Corner) - BUS417SW","""Airport Rd & Nimitz Dr (SW Corner) BUS417SW""",40.4223312689263,-86.9305643099883,0
3e2aaea8-ceba-4233-ab7f-bfc5ad7b9c9c,"BUS217","Purdue Village Bldg 142 (at Shelter) - BUS217","",40.41991,-86.92945,0
5423bc5d-ab9f-4aad-9998-fd3aa1fb5241,"BUS456","Purdue Village Bldgs149-151 - BUS456","""Purdue Village Bldgs149-151 BUS456""",40.4189597319936,-86.9255660131911,0
9bbad2dc-472d-40af-99ec-704b9be1b7f2,"BUS249","Discovery Parking Lot (at Shelter) - BUS249","",40.4194304597038,-86.9239553465817,0
b7d98719-262a-46b3-9326-2bcc8ff8d686,"BUS982","IU Health Arnett Hospital - BUS982","",40.4016,-86.8051,0
660174cb-80bc-4d9f-993e-29c770015ea6,"BUS819","McCarthy Ln & Park East Blvd (NE Corner) - BUS819","",40.4031025113524,-86.8278128998168,0
331cfcf9-1d9e-4bf1-85f3-c4038c42e465,"BUS968","McCarty Ln & Mezzanine Dr (NE Corner) - BUS968","",40.4030756892607,-86.8321379621111,0
27fdf4e5-631b-482d-884b-63a6933baa37,"BUS650","McCarty Ln & Sickle Ct (NW Corner) - BUS650","",40.4030475260644,-86.8345854779831,0
b4a43725-ee67-4242-8b3a-8d0f4503617f,"BUS774N","McCarty Ln & Emerald Pines Ct (NE Corner)- BUS774N","",40.403042161646,-86.8365676305632,0
ba21a42c-7184-4004-9ed3-ebb057685a52,"BUS651","McCarty Ln & Landmark Dr (NE Corner) - BUS651","",40.4030072929268,-86.8410469198851,0
35f6baa2-9d04-4447-8cec-835bae9c1a4e,"BUS656","McCarty Ln & Kepner Dr (NE Corner) - BUS656","",40.4030233861818,-86.8444493022233,0
a7fbbe83-2a7e-457f-81ca-356112fc4659,"BUS660","McCarty Ln & Industrial Dr (NE Corner) - BUS660","",40.4029831530442,-86.851298323351,0
91b0d3ad-5fa0-42f8-a294-34de3078ad73,"BUS669","McCarty Ln & Sagamore Pkwy S (East of) - BUS669","",40.402918780024,-86.8561155710289,0
1bea7f22-b2fb-4cb1-9bf9-687cfefcf347,"BUS670","McCarty Ln & Main St (NE Corner) - BUS670","",40.4028383137487,-86.8604097879177,0
3c7d4d83-7927-49cf-bcb3-2129649e96d7,"BUS680","Earl Ave & Central St (East of) - BUS680","",40.4064780715989,-86.8615349746666,0
2d656c85-3853-4582-9b76-8d953b7d4972,"BUS684","Earl Ave & Warner St (East of) - BUS684","",40.4086667542855,-86.8605345106444,0
75146237-9c5f-42af-a269-4f5efc4804d8,"BUS795","Kossuth St & 30th St (NE Corner) - BUS795","",40.4102210945023,-86.862677595775,0
f6209b75-67a5-45e7-be2e-f4d38f559fb1,"BUS533","Kossuth St & 28th St (NE Corner) - BUS533","",40.4102210945023,-86.8648998060763,0
cdba51d2-0c97-4f76-b004-6fb3d9b3e339,"BUS685","26th St & Kossuth St (North of) - BUS685","",40.4102331644436,-86.8671005587042,0
e71d4cb0-a864-4af7-ae98-05821ba20f9f,"BUS687","26th St & Wallace Ave (SE Corner) - BUS687","",40.4130387552404,-86.8672373513721,0
95ada632-a149-4e26-bd1f-4e193bb35e52,"BUS689","26th St & OFerrall St (SE Corner) - BUS689","",40.4160978148042,-86.8673526863666,0
f9cfd6fa-aa50-4c78-b91c-c960568c4254,"BUS690","South St & 23rd St (NE Corner) - BUS690","",40.4175260911898,-86.8711721522315,0
97c7fb62-d8cf-4eba-bc5b-fff30efcd88b,"BUS691","South St & 19th St (NE Corner) - BUS691","",40.4174711059017,-86.8757748231754,0
d523d4df-de43-411d-a8ab-eed5ef49cac7,"BUS692","South St & Main St (NE Corner) - BUS692","",40.4174067328815,-86.8785106765336,0
944a38b7-258a-4e1c-85ec-3ec454112d9e,"BUS389","Beering Hall on University St (@Shelter) - BUS389","",40.425905,-86.916588,0
0dcf47f0-c8f8-40fc-ba38-7aba97acf163,"BUS563","Purdue Univ Student Health Center - BUS563","""Purdue Univ Student Health Center BUS563""",40.4302129405864,-86.916647667685,0
fad314a7-6cd7-419d-a721-97b58860aec3,"BUS950","Vine St & Wiggins St (SW Corner) - BUS950","",40.4266201213968,-86.908213460935,0
453a6b2f-4b0c-484f-88e8-a7f4ba387fd5,"BUS951","Wiggins St & Salisbury St (SW Corner) - BUS951","",40.4265664772133,-86.905704254252,0
cad24dc7-2e2e-49f7-aa96-b411f2771e14,"BUS602E","River Rd & Robinson St (North of, East) - BUS602E","",40.4283514874191,-86.9007032752456,0
6d385964-16fc-480a-8a0f-e7bf9f029be3,"BUS460","Launch Apts (South Drive, SE Corner) - BUS460","""Launch Apts (South Drive, SE Corner)-BUS460""",40.430559,-86.899728,0
a8431f90-23e3-41ea-bca4-3cfec10039dc,"BUS065","Launch Apts (North Drive, SE Corner) - BUS065","",40.4319899041646,-86.8990912675316,0
6cfc1607-52c1-452b-8b5b-aaf034c87d5a,"BUS826","Robinson St & Salisbury St - BUS826","",40.4351441821542,-86.9058021548869,0
16b0b1c9-d46f-43ed-9013-44d2843a7f24,"BUS493","Happy Hollow School on Salisbury(SE Corner)-BUS493","""Happy Hollow School on Salisbury(SE Corner) BUS493""",40.4373275004224,-86.906149500975,0
06948450-8ab0-4234-ba9a-c66bad0acaf3,"BUS637SE","Salisbury St & Rockland Dr (SE Corner) - BUS637SE","""Salisbury St & Rockland Dr (SE Corner) BUS637SE""",40.4389354848227,-86.9074436669018,0
1def2cd6-1a4a-4f4e-a862-67482653334c,"BUS337NE","Salisbury St & Grant St (NE Corner) - BUS337NE","",40.4418725038691,-86.9107307142455,0
ca85bace-1874-472d-9925-6fcb03d9babd,"BUS638","Salisbury St & Creighton Rd (NE Corner) - BUS638","",40.443052675906,-86.9125666864256,0
fbc2a1ba-5b1c-4d12-9b72-aa26831baadb,"BUS365SE","Salisbury St & Lindberg Rd (Southeast of)-BUS365SE","",40.4452802506256,-86.9138487824112,0
8c9ef81a-245e-434e-b68c-364e14a8380e,"BUS633SE","Salisbury St & Sycamore Ln (SE Corner) - BUS633SE","",40.4480952291546,-86.9156176993619,0
5b34a989-adae-4309-bb7c-943726eab47e,"BUS484","Salisbury St & Park Ridge Dr (SE Corner) - BUS484","",40.450833764722,-86.9155841717472,0
96d70f0a-b333-4f37-a4c6-c7e7cc3bd488,"BUS604","Marsh Supermarket on Navajo St (South) - BUS604","""Marsh Supermarket on Navajo St BUS604""",40.4515405268395,-86.9146185764443,0
6da82601-35df-4d30-9ea8-b38d1f44139b,"BUS981","IU Arnett Sagamore Pky W viaNighthawk(East)-BUS981","""IU Arnett Clinic on Sagamore Pky W via Nighthawk Dr (East) - BUS981""",40.4520139367589,-86.9114642984548,0
fef82648-8778-4bf5-b9be-9246dd9f9b6c,"BUS335","Soldiers Home Rd & Sharon Rd (NE Corner) - BUS335","",40.454376,-86.903131,0
cc62f39f-1b31-45e2-8303-96b04990c386,"BUS926","Soldiers Home Rd & Myrtle Dr (NW of) - BUS926","",40.4565187070679,-86.9029724242075,0
0d421781-1a76-4e5e-92d8-16d2c436827f,"BUS613","Soldiers Home Rd & Hartman Ct (SE Corner) - BUS613","",40.4596421396519,-86.9015240312531,0
b795cdd9-6b26-4d17-a053-404a198caaff,"BUS936NE","Soldiers Home & Overlook Dr (NE Corner) - BUS936NE","",40.4607190466356,-86.9011284053998,0
64c38d81-e85a-4726-9876-a9417f97be1e,"BUS614","Indian Rock Dr & Soldiers Home (SE Corner) -BUS614","""Indian Rock Dr & Soldiers Home (SE Corner) BUS614""",40.46451,-86.899675,0
b90ef2fd-ef0b-4432-9c65-3c0fbe660eac,"BUS616","Heritage Health Care (South Drive) - BUS616","",40.4667,-86.8995,0
2980fa20-2e88-403e-8d1e-15d1e70f69c2,"BUS927SE","Soldiers Home & Broadview-BUS927SE (by Request)","""Soldiers Home Rd & Broadview (SE Corner)-BUS927SE""",40.472596,-86.896606,0
a1b3d433-a403-4cdb-9d2e-f50423d436bc,"BUS928SE","Veterans Home Entrance (S) - BUS928SE (by request)","""Veterans Home Entrance on Soldiers Home - BUS928SE""",40.474506,-86.895548,0
a671e96c-5ba3-4539-822f-fe0e564e2d02,"BUS929","Lincoln Hall at Ind Vets Home- BUS929 (by Request)","""Lincoln Hall at Indiana Veterans Home - BUS929""",40.4732422812726,-86.8906677896182,0
47f1135f-793b-403e-a2fc-886ffdbecf24,"BUS930","Dehart Hall at Ind Vets Home - BUS930 (by Request)","""Dehart Hall at Indiana Veterans Home - BUS930""",40.4722538871916,-86.8884080283885,0
81473d1f-4490-431d-99d4-9fbdf745d001,"BUS931","Mitchell Hall at Ind Vets Home -BUS931(by Request)","""Mitchell Hall at Indiana Veterans Home - BUS931""",40.4715068919365,-86.8885582321023,0
adb7450f-8d15-4335-bda7-88d34eaf25e7,"BUS932","Pyle Hall at Ind Vets Home - BUS932 (by Request)","""Pyle Hall at Indiana Veterans Home - BUS932""",40.4716249091402,-86.8917353088698,0
604f3ed3-fe7b-4aea-b5b2-0672ea69673c,"BUS933","Ingersol Hall at In Vets Home - BUS933(by Request)","""Ingersol Hall at Indiana Veterans Home - BUS933""",40.4732221647037,-86.8923227126791,0
f3f8dfe9-450c-42d2-b657-cf3c26286f9b,"BUS928NE","Veterans Home Entrance (N) - BUS928NE (by request)","""Veterans Home Entrance (North Side) - BUS928NE""",40.474506,-86.895548,0
341e57ff-be30-4d10-b2f1-7bf00b7757c4,"BUS927NW","Soldiers Home & Broadview-BUS927NW (by Request)","""Soldiers Home Rd & Broadview (NW Corner)-BUS927NW""",40.472596,-86.896606,0
82931d1c-c513-447f-b5c6-a9db4f00becf,"BUS617","Solders Home & Kalberer (NW) - BUS617(by Request)","""Solders Home Rd & Kalberer Rd (NW Corner) - BUS617""",40.468792,-86.89953,0
86a418a9-509e-4c0b-a085-64c03ad10232,"BUS824","Prophet Dr and Soldiers Home Rd (West) - BUS824","",40.46451,-86.899675,0
0981ca3e-ecaa-4d63-8d77-39c1536246f5,"BUS267","Soldiers Home Rd & Cumberland (NW Corner)-BUS267","""Soldiers Home Rd & Cumberland (NW Corner) BUS267""",40.4593377089106,-86.9016433895614,0
addb31cf-1f07-4a88-9877-618826ed29cf,"BUS959","Soldiers Home Rd & Linda Ln (SW Corner) - BUS959","",40.4571678016882,-86.9026666523616,0
b3680c3e-b5cb-4b55-a410-4ffe069b56ec,"BUS553","Circle Pines on David Ross Rd (NW Corner) - BUS553","""Circle Pines on David Ross Rd (NW Corner) BUS553""",40.4352662226716,-86.9249155774662,0
026f5492-3c62-4475-b351-8a726ef053bb,"BUS554W","Alpha Chi on David Ross Rd - BUS554W","""Alpha Chi on David Ross Rd BUS554W""",40.434413,-86.925697,0
00dcf692-3c59-46d0-a174-054c506a5773,"BUS562S","Theta Chi on Tower Dr - BUS562S","""Theta Chi on Tower Dr BUS562S""",40.433133,-86.925902,0
f3baf899-4152-4dd1-ae88-58f6961311cd,"BUS472S","Tower Dr & Hilltop Dr (SE Corner) - BUS472S","",40.4331499596327,-86.9232070102219,0
809304d8-f338-4424-bba4-50a3ac1be563,"BUS509SW","Tower Dr & Jischke Dr (SW Corner) - BUS509SW","",40.4328951497612,-86.9216057313446,0
e01a6d90-71ee-45a7-b588-7d60c26f21a9,"BUS213S","Beering Dr & Tower Dr (Southwest of) - BUS213S","",40.4327771325574,-86.9192561161075,0
436cf402-4c7a-4330-81b9-ff7d657281d2,"BUS403","Walmart West Lafayette (at Shelter) - BUS403","""Walmart West Lafayette (at Shelter) BUS403""",40.457538,-86.934027,0
62852597-ea73-4ef0-a208-1606b8e3fda1,"BUS922","Christina & Co Cumberland Ave (SE Corner) - BUS922","",40.4598701274318,-86.9340042432549,0
b7af913b-69bb-4402-9606-21aa7bd96574,"BUS511SW","Cumberland Ave & Kent Ave (West of) - BUS511SW","",40.4605165398429,-86.9307265836434,0
05f855c2-f841-408a-9cd0-0818da37b8d6,"BUS455S","Salem Courthouse on Cumberland (South) - BUS455S","",40.4604991054832,-86.9274006442666,0
53c6a6aa-eadf-4e45-9321-5c19d5a980b0,"BUS964","Cumberland Ave & Yeager Rd (SW Corner)  - BUS964","",40.4605192220521,-86.9247077062552,0
b40e611c-fa71-4820-b764-49ae72a7b6dd,"BUS136","Cumberland Ave & Browning St (East of) - BUS136","",40.4604374146722,-86.9203893494838,0
dd72056a-ffbd-4dc7-bdca-645c2f83ce77,"BUS133","Cumberland Pointe on Cumberland Ave(South)- BUS133","""Cumberland Pointe on Cumberland (South) - BUS133""",40.46043,-86.91838,0
5d99bf19-ce75-49ba-846c-bec42ea0ea0f,"BUS138","Cumberland Ave & Salisbury St (SW Corner) - BUS138","",40.4603784060704,-86.9158108184225,0
ee5e8986-02dd-4292-ac23-9e75b385d1b7,"BUS131W","Westminster Village N & Salisbury (West) - BUS131W","",40.4586121713288,-86.9156941423234,0
7642ddfb-b9e1-41ac-9021-71a1b2cebdf0,"BUS130","Westminster Village S & Salisbury (West) - BUS130","",40.4569331083854,-86.9157102355784,0
e5a3df8d-50ec-499a-ae00-a56fba5445b5,"BUS149","Salisbury St & Kent Ave (at Shelter) - BUS149","",40.4554,-86.9158,0
cfbe1d60-9439-44fe-b302-b65194673551,"BUS293","Salisbury St & Navajo St (at Shelter) - BUS293","",40.4510322482009,-86.9158818969656,0
feaf67b8-2a37-4b70-ac58-ac4be997ce26,"BUS633NW","Salisbury St & Sycamore Ln (NW Corner) - BUS633NW","",40.4480509727032,-86.9158242294684,0
16006c4f-36bd-4e33-843f-a0e3124955fc,"BUS365NW","Salisbury St & Lindberg Rd (NW Corner) - BUS365NW","",40.4457979169964,-86.9142497726828,0
f285029b-17eb-448b-bc9a-49aec3a5be09,"BUS924","Salisbury St & Riley Ln (Southeast of) - BUS924","",40.443075474684,-86.9127651699046,0
2d8da70d-7147-42c3-bcbb-41f40961d8db,"BUS582","Salisbury St & Grant St (Southeast of) - BUS582","",40.4415533209773,-86.9105268663482,0
b3e9903b-c4fa-418f-8414-ee2693cc2f35,"BUS637NW","Salisbury St & Rockland Dr (NW Corner) - BUS637NW","",40.4389073216264,-86.9076206927074,0
7ce2bf5c-88c2-4ff3-ab5b-1abe1a560d70,"BUS224","Salisbury St & Leslie Ave (NW Corner) - BUS224","",40.4367454610315,-86.9061012212098,0
72d8948f-e15b-4564-a7ee-7b0128a82f83,"BUS333NW","Salisbury St & Meridian St (NW Corner) - BUS333NW","",40.4352179429065,-86.9058812800575,0
1e1c3fba-452e-4393-b858-46cfa5e737e3,"BUS636NW","Salisbury St & Dehart St (NW Corner) - BUS636NW","",40.4327087362235,-86.9058021548869,0
ad89e4ce-31b8-47e1-80d2-f88a785a3815,"BUS291NW","Salisbury St & Stadium Ave (NW Corner) - BUS291NW","",40.4308580118929,-86.905743146285,0
9206c2cb-3767-4896-bcf3-d5bc91d44e57,"BUS647","Stadium Ave & Vine St (NE Corner) - BUS647","",40.4308620352067,-86.908106172568,0
ee397db8-4cae-406a-a67d-4ada0c8ccafc,"BUS634","Stadium Ave & Grant St (NE Corner) - BUS634","""Stadium Ave & Grant St (NE Corner) BUS634""",40.4308969039259,-86.9103404528106,0
7fbd6650-1f80-4b0c-aa84-5415ffa0bb35,"BUS530N","McDonalds on Stadium Ave - BUS530N","",40.431419934715,-86.9131514080257,0
ab657650-567c-4e55-ac1d-8df9ddd1feef,"BUS111","Lambert Fieldhouse on Stadium Ave - BUS111","""Lambert Fieldhouse on Stadium Ave BUS111""",40.4314,-86.9158,0
5a20643b-dbd1-4259-a788-9e5041be4f35,"BUS286","Cary Quad on Stadium Ave - BUS286","",40.4314279813426,-86.9178573440228,0
19991912-e5a1-43a1-82b9-f95addb17f17,"BUS439","Russell St & 4th St (NW Corner) - BUS439","",40.4282911377127,-86.9191971075056,0
268488e0-de60-4b97-a83a-d532b60f2916,"BUS804","Russell St & 2nd (NW Corner) - BUS804","",40.4262741164133,-86.9191743087276,0
17f4283b-8ae5-4ddf-9cc2-6c0553e21bca,"BUS471","Chauncey Ave & Wood St (SW Corner) - BUS471","""Chauncey Ave & Wood St (SW Corner) BUS471""",40.4220120860345,-86.9076595847404,0
14312e1b-2be0-44db-9c47-db6927151e37,"BUS265","South St & 4th St (SW Corner) - BUS265","",40.4172981034099,-86.8930616613067,0
17ad42bb-d54d-4c61-81df-a29c1b21d545,"BUS329","South St & 5th St (SW Corner) - BUS329","",40.4172766457365,-86.891884171479,0
3c28c107-900d-44c6-9520-c5c602d565f2,"BUS351","Tippecanoe Co Public Library on South St - BUS351","""Tippecanoe Co Public Library on South St BUS351""",40.4172645757952,-86.8894339733978,0
56f048a4-7a48-4098-ba9e-eec6e7e21d29,"BUS659","South St & 10th St (West of) - BUS659","",40.4172873745732,-86.886183135878,0
9e926dbc-1252-4996-8e96-fafedb024efc,"BUS661","South St & McGrath Ave (West of) - BUS661","",40.4173128555603,-86.8837141623327,0
fd7a0a81-391f-4f96-8396-1dcc1cf7277a,"BUS206","South St & 14th St (SW Corner) - BUS206","",40.4173343132337,-86.8818580735837,0
ad96755a-2fe0-46de-add1-5a245c1fbc0f,"BUS962","South St & Douglas St (SW Corner) - BUS962","",40.4173101733512,-86.8755280599313,0
fd920588-225c-4221-863e-f28b972007ba,"BUS967","South St & Thompson St (SW Corner) - BUS967","",40.4173705230576,-86.8714068455342,0
e18f2012-da70-40dd-ba2d-762b74cf24f0,"BUS799","OFerrall St & 26th St (SW Corner) - BUS799","",40.4160937914904,-86.8674720446749,0
34a53fe8-7d68-40af-aa2d-614f8aed4784,"BUS189","26th St & Wallace Ave (NW Corner) - BUS189","",40.4131500669211,-86.8673526863666,0
11c3adf0-86cc-4c2b-a227-c679b7f7c878,"BUS383N","26th St & Kossuth St (NW Corner) - BUS383N","",40.410163427005,-86.8672252814308,0
ee8f7f63-4cd8-4bfc-993a-f0995a3985bc,"BUS533S","Kossuth St & 28th St (SW Corner) - BUS533S","",40.4100896662527,-86.8651318171699,0
3abdcbc0-bcca-4903-9543-e3a80aa50ed4,"BUS523SW","Kossuth St & 30th St (SW Corner) - BUS523SW","",40.410101736194,-86.8628371872209,0
413f3d66-c495-4fe3-8096-8d8d5fd2ebc5,"BUS202","Kossuth St & Earl Ave (SW Corner) - BUS202","",40.4100775963114,-86.8606565511618,0
d992ebf2-4dbf-4412-b292-97951b098007,"BUS972","Earl Ave & Central St (NW Corner) - BUS972","",40.4065960888026,-86.8616167820464,0
062ff832-6053-4ca4-969e-cb95b2c1d244,"BUS666","McCarty Ln & Sagamore Pkwy S (West of) - BUS666","",40.4027632118918,-86.8588675176422,0
26536f39-006e-4b02-9f00-a1a17ff6f5c7,"BUS298","McCarty Ln & Sagamore Pkwy S (East of) - BUS298","",40.4027725996239,-86.8560847256234,0
cc6d07b9-5e40-45e2-b2f5-81221584f44d,"TEMP9","McCarty Ln & Industrial Dr (SE Corner) - TEMP9","",40.402873182468,-86.8513573319529,0
98861c37-c297-42d8-8dcc-8c3e4b30eca9,"BUS994","McCarty Ln & Kepner Dr (SW Corner) - BUS994","",40.4029496254295,-86.8445887771004,0
371775ea-ed1b-4629-a0a1-7b58ed1605d8,"BUS995","McCarty Ln & Landmark Dr (South of) - BUS995","",40.4029482843249,-86.8413017297567,0
bd8861a0-133e-4932-bbf9-a5eea046aeee,"BUS895","McCarty Ln & Emerald Pines Ct (SW Corner)- BUS895","""McCarty Ln & Emerald Pines Ct (SW Corner) - BUS895""",40.402934873279,-86.8367071054403,0
14658f76-6f17-4d43-93af-83d4902e8b33,"BUS996","McCarty Ln & Burberry Dr - BUS996","",40.4029603542662,-86.8343869945042,0
aef0f840-83ee-4737-b2bf-efd2bca3ab3b,"BUS997","Mezzanine Dr & McCarty Ln (NW of) - BUS997","",40.403751,-86.832182,0
af6bc70c-97be-4d02-a625-f7a3b7e462d0,"BUS601","Arnett Clinic at 925 Mezzanine Dr - BUS601","",40.405971,-86.832584,0
4434f8a4-2794-4ca1-a3b8-c2d3b21a3cd6,"BUS603","Mezzanine Dr & Park East Blvd (SW Corner) - BUS603","",40.4069662336687,-86.829027940573,0
8404fda0-d761-44fd-b565-94cd5fdb9fe0,"BUS625","Park East Blvd & Retail Dr (SW Corner) - BUS625","",40.40433,-86.82796,0
de69d2d8-036c-4bbf-8d3b-5061dffe3548,"BUS682S","Edgelea School (West Drive) on Beck Ln - BUS682S","",40.3879842393389,-86.8793515491099,0
debc2f59-4146-4eb7-9219-d76422769872,"BUS776","Beck Ln & 18th St (West of) - BUS776","",40.3880311779994,-86.8772540615352,0
29d48fde-c618-43d3-b088-e6a1a94f8aa6,"BUS738","18th St & Iroquuois Tr (SE Corner) - BUS738","",40.3922194476258,-86.8763541803571,0
9e5f1a0d-76ee-44a1-8fe7-554e6e04ff75,"BUS420","18th St & Teal Rd (SE Corner) - BUS420","",40.3951685366135,-86.8763595447754,0
4ad655b9-ea27-4e8a-8e99-9dbd9a3934c0,"BUS198","18th St & JR Hiatt Dr (NE Corner) - BUS198","",40.3975945948121,-86.8763595447754,0
b78f0675-a87c-49c9-9ea4-744da29b75ec,"BUS986N","Logan Ave & 18th St (West of) - BUS986N","",40.4027149321267,-86.8769643829444,0
ebdd545b-64ac-41d1-a040-d5949125e745,"BUS327NE","Logan Ave & El Prado Ave (NE Corner) - BUS327NE","",40.4026679934661,-86.8793904411429,0
a6c6068a-580c-49bd-b04d-b244dabab1d4,"BUS544NE","Logan Ave & 14th St (NE Corner) - BUS544NE","",40.4026519002111,-86.8813484538405,0
233d9a26-e01b-4998-82d2-66eb2cf287d6,"BUS241","9th St & Logan Ave (NE Corner) - BUS241","",40.4026921333487,-86.8861013284982,0
10a094e8-a1f4-44a3-ae31-7d8593d97752,"BUS528","9th St & King St (SE Corner) - BUS528","",40.4044167938481,-86.8861643604138,0
f68c4e78-61f8-4285-956e-b378e2315be1,"BUS697","9th St & Central Ave (SE Corner) - BUS697","",40.4061575476025,-86.8861643604138,0
f2a523f0-a144-4262-95dd-6a7659ba7f0b,"BUS575","9th St & Kossuth St (South of) - BUS575","",40.4097932821389,-86.8864003948212,0
2be385b4-efec-4f8a-b6fd-ba29c1fd1542,"BUS279","9th St & State St (SE Corner) - BUS279","",40.4128670938532,-86.8865653506854,0
74199c09-3c21-4e7e-8ad3-fe05bd949b77,"BUS918","Prospect Hill Apts on 9th - BUS918","",40.41421,-86.88655,0
53f7cc8f-759f-4e56-8930-e7b41d94ddfd,"BUS502","Art Museum on 9th St - BUS502","""Art Museum on 9th St BUS502""",40.4163861522905,-86.8866538635882,0
9ff715ab-3d42-4da3-9a13-b875686ecd80,"BUS894","Avenue Apts NORTH - BUS894","",40.4722,-86.9459,0
2d2e87c2-6d45-493b-9d94-9cd39806a82a,"BUS179","Avenue Apts SOUTH on Sagamore Pkwy W-BUS179","",40.4674124996312,-86.947381761514,0
f0d247ad-b1cb-41b2-9ce0-79268c102688,"BUS559","Northwestern Ave & Wiggins St (NW of) - BUS559","",40.4270640270152,-86.9094673937242,0
2cd9ee46-2ce6-448e-afa5-57d89a30a130,"BUS810","Russell St & 4th St (SE Corner) - BUS810","",40.4281986014962,-86.9191099357074,0
eccb3a3f-d694-4d30-ba11-791dac054a87,"BUS800a","Russell St & 6th St (SE Corner) - BUS800","",40.4302384215735,-86.9191072534983,0
0aa11308-840e-4bac-9181-1e3405cc4b04,"BUS213","Beering Dr & Tower Dr (Southeast of) - BUS213","",40.4328830798199,-86.919088478034,0
faa78840-0e05-4819-9495-761fd34d9a3b,"BUS509SE","Jischke Dr & Tower Dr (SE Corner) - BUS509SE","",40.4329031963887,-86.9213965190289,0
2a1adae1-b45f-4161-bcdd-950a6751acd4,"BUS472N","Tower Dr & Hilltop Dr (NE Corner) - BUS472N","",40.4332947989282,-86.9231238617375,0
01c389b6-6e4b-4d5b-b2dc-321971f6d3c5,"BUS562N","Theta Chi on Tower Dr - BUS562N","""Theta Chi on Tower Dr BUS562N""",40.433282,-86.926174,0
731c904f-304f-459e-9f3b-7a53128b061d,"BUS554E","Alpha Chi on David Ross Rd - BUS554E","""Alpha Chi on David Ross Rd BUS554E""",40.4343261083559,-86.9255968585966,0
2d9b74c5-4242-49a4-b7c3-fe75d2e257ce,"BUS532SW","Ferry St & 8th St (SW Corner) - BUS532SW","",40.4200433445003,-86.8883369498454,0
160c6c8e-7f14-499e-b2ba-53bafb310c32,"BUS255","(Northeast Corner) 9th St & Ferry St - BUS255","""(Northeast Corner) 9th St & Ferry St BUS255""",40.4200969886838,-86.8867638341644,0
a5295bd7-6a07-49c4-9c26-ebaeabfcbb07,"BUS220SE","Brown St & 9th St (SE Corner) - BUS220SE","",40.4217465473262,-86.8867557875368,0
d7bb5b2d-a286-4231-9e6a-6cc0b65ca44e,"BUS783SE","9th St & Cincinnati St (SE Corner) - BUS783SE","",40.4226732505961,-86.8867557875368,0
45e9773f-b038-49af-b995-b4ba4fdd5711,"BUS367SE","9th St & Union St (SE Corner) - BUS367SE","",40.4246258988754,-86.8868349127075,0
ffab6e94-2c8a-4d4a-a1b9-507853d0bbad,"BUS380SE","Salem St & 9th St (SE Corner) - BUS380SE","""Salem St & 9th St (SE Corner) BUS380SE""",40.4256585494076,-86.8868845335772,0
9abc1457-9660-43f6-9760-a10c49d925d0,"BUS292SE","9th St & Hartford St (SE Corner) - BUS292SE","",40.4276514308245,-86.8869649998525,0
3051d648-a692-42e0-b8c4-471bf41a5ae6,"BUS789SW","Hartford St & 12th St (SW Corner)  - BUS789SW","",40.4276970283805,-86.8842224409713,0
b31693bc-446d-4590-b42a-09f71bb058dd,"BUS546W","Hartford St & 14th St (at Shelter) - BUS546W","",40.4276635007658,-86.8823904921049,0
afeb6078-f6ed-4544-97fd-3f240fa0f459,"BUS847","Tippecanoe St & 14th (East of) - BUS847","",40.4264484600096,-86.8816716600461,0
8112b527-29e0-4de9-bc6b-0ae0bb552b9a,"BUS488","Tippecanoe St & 17th St (SW Corner) - BUS488","",40.4264672354738,-86.8789089845961,0
e993057a-8ec2-4b7d-837e-27eacf5f6e72,"BUS451","Riggs Community Health Clinic (@ Shelter) - BUS451","""Riggs Community Health Clinic (at Shelter) BUS451""",40.4285526531072,-86.878922395642,0
9ebef0e1-cba2-4385-970a-0285ef3acbdf,"BUS849","17th St & Howell St (SE Corner) - BUS849","",40.4300506669313,-86.8789438533154,0
2fd35a6b-3549-4dc4-889d-59b89bbb0095,"BUS452","17th St & Greenbush St (SE Corner) - BUS452","",40.4320609827078,-86.8790015208126,0
c3134604-6d50-4534-ab82-53b3a4eef972,"BUS330SW","Greenbush St & 18th St (SW Corner) - BUS330SW","",40.4320475716619,-86.8775973843096,0
24015627-2706-4368-a42b-b3921d0ee09f,"BUS850","Wabash Center on 20th St (at Shelter)  - BUS850","",40.432209845317,-86.8744471296338,0
4c004307-ae9d-49ba-aa59-557d44e0b112,"BUS851","20th St & Meharry St (SE Corner) - BUS851","",40.4338325818677,-86.8744659050981,0
8f0c875a-29ff-4aa0-a364-178b35231de9,"BUS852","20th St & Perrine St (SE Corner) - BUS852","",40.435801323402,-86.8744846805623,0
1518c37e-f46e-424d-abaa-44eee7c6cad2,"BUS274","20th St & Underwood St (SE Corner) - BUS274","",40.4377137385436,-86.8744940682944,0
619cdae0-1d23-4c6d-ba77-91118ef4909d,"BUS937","Underwood St & 22nd St (SW Corner) - BUS937","",40.4377271495895,-86.8713813645471,0
1a8389b9-fca0-4fd8-9e02-cbe36f2729c5,"BUS353","(North of) 24th St & Underwood St - BUS353","""(North of) 24th St & Underwood St BUS353""",40.4378089569693,-86.869629881956,0
3fc229c9-9ffd-421e-af00-35906316b87b,"BUS854","24th St & Albany St (SE Corner) - BUS854","",40.4397857451311,-86.8696419518973,0
d0d26a95-3d23-4c13-9cf4-0ed35a864890,"BUS246","24th St & Schuyler Ave (South of) - BUS246","",40.4418188596856,-86.8696352463743,0
f79f208a-df81-430e-a8db-4bd1f8c4d4ff,"BUS744","Brown St & 5th St (SW Corner) - BUS744","",40.4218417657519,-86.8919284279304,0
bd4effa0-cec8-4073-b702-ccb325f8084d,"BUS410SW","Brown St & 6th St (SW Corner) - BUS410SW","",40.421812261451,-86.8907267982201,0
6cfd7c6b-dc82-49ce-acf6-8b3c7d0d566e,"BUS987SE","9th St & Roberts St (SE Corner) - BUS987SE","",40.4297100263661,-86.8870105974084,0
ae8f8f04-3c19-4c73-a89b-7eaebe3c595f,"BUS512","Greenbush St & 9th St (SE Corner) - BUS512","",40.4320489127665,-86.8870561949644,0
101a28d7-667f-4ac1-8b53-2a2905d7d1b5,"BUS422W","(NW of) 9th St & Canal Rd - BUS422W (by Request)","""(Northwest of) 9th St & Canal Rd BUS422W""",40.4340712984843,-86.88745,0
5b85ad3b-ab89-480d-9926-66b8153f0b8e,"BUS143","CityBus Offices (Canal Rd) - BUS143 (by Request)","""CityBus Offices (Canal Rd) - BUS143""",40.429116,-86.891767,0
6020e3b7-c128-4b4a-a787-299a3f61bf5e,"BUS422E","(SE) 9th St & Canal Rd - BUS422E (by Request)","""(Southeast of) 9th St & Canal Rd BUS422E""",40.4340712984843,-86.8874504797131,0
4739f29c-37e9-490d-a102-285793b4a89c,"BUS508W","Greenbush St & 14th St (SW Corner) - BUS508W","",40.4320462305574,-86.8823703755361,0
c39b29c6-f515-4ee1-bdf1-ef3385607764,"BUS921","Linnwood Park at Greenbush & 16th (SW) - BUS921","",40.4320448894528,-86.8798772621082,0
864bd3ea-45cf-464d-8149-1d88e8ecda80,"BUS230S","Greenbush Crossing Apartments - BUS230S","""Greenbush Crossing Apartments BUS230S""",40.4320395250344,-86.8738235160007,0
98dc9147-7ccd-44f8-8dcb-29af2ddaafdc,"BUS245SW","Market Square (WEST) on Greenbush St - BUS245SW","""Market Square (WEST) on Greenbush St BUS245SW""",40.4320609827078,-86.8708985668956,0
434b22fb-1c33-4f94-8a69-334365785ae9,"BUS245SE","Market Square (EAST) on Greenbush St - BUS245SE","""Market Square (EAST) on Greenbush St BUS245SE""",40.4320730526491,-86.8691376965724,0
379c8205-572f-45aa-adb2-3d980ec41de9,"TEMP13","Melborne Rd & Vinton St ( SE Corner) - TEMP13","",40.4348545035633,-86.8672293047446,0
85e0fb23-d08a-41c0-ad3c-950eb54882e9,"TEMP12","Vinton St & Elmwood Ave (West Corner) - TEMP12","",40.43431269731,-86.8636606254375,0
8dff7a02-a0f1-448b-ac2b-49501a43de79,"BUS453","DETOUR STOP 29th & Longlois (NW Corner) -  BUS453","""Greenbush St & 28th St (East of) - BUS453""",40.4329729338272,-86.8620003379584,0
2d76bf4d-06f6-4e1f-b15f-75574fb1189a,"BUS231S","Greenbush St & Sagamore Pkwy N (SW Corner)-BUS231S","",40.4320395250344,-86.8585174893449,0
aaa58972-eae7-4e1d-8fe5-db996e84dd6e,"BUS753","RRX on Greenbush St (SW Corner) - BUS753","",40.4320730526491,-86.8568853650621,0
edd265b1-c7e5-4f04-a618-291f8a1040f4,"BUS526SW","Greenbush St & Chauncey Court (SW Corner)-BUS526SW","",40.4321119446821,-86.8476920931156,0
792542fa-cd7a-46e1-8705-9c3b4ae24ced,"BUS513","Greenbush St & Shenandoah Dr (SW Corner) - BUS513","",40.4320784170674,-86.8450179305683,0
f44c18a8-6c1b-42ce-9298-980017b2793e,"BUS050","Munger Trail on Shenandoah Dr (West Side) - BUS050","",40.4289844887844,-86.8450460937647,0
b2a23df9-aa0d-4b32-96da-4bc53de31048,"BUS757NW","Shenandoah Dr & Navarre Dr (NW Corner) - BUS757NW","",40.4266107336647,-86.8472629396476,0
ceb82865-7bd7-4755-81e7-93ad9e1723a7,"BUS485","Shenandoah Dr & Union St (NW Corner) - BUS485","",40.4249504461855,-86.847154310176,0
0fe2ae2c-2127-4030-afad-46131b519623,"BUS920NW","Shenandoah Dr & Claremont Ln (NW Corner)- BUS920NW","",40.4231466605155,-86.8471864966861,0
75c649ec-a20a-4427-a29c-ddba73742244,"BUS759W","Shenandoah Dr & Driftwood Dr (SW Corner) - BUS759W","",40.4214541865262,-86.8464998511374,0
7c86a758-8788-473d-8c4b-631691977d92,"BUS820","Rome Dr & Shenandoah Dr (SE Corner) - BUS820","",40.4205274832563,-86.8459862080804,0
7b805c07-5370-4661-a02a-59b19ac79a7d,"BUS760","Rome Dr & Executive Dr (SE Corner) - BUS760","",40.4205180955242,-86.8435668554048,0
44f5cc6f-b71b-44ed-9060-c5a992ed9f0c,"BUS468","Rome Dr & Creasy Ln (SW Corner) BUS468","",40.4207943630692,-86.839142551371,0
10642b9e-b423-46b4-a413-b5bd8b4a50e1,"BUS192","Creasy Ln & South  (North of, West Side) - BUS192","",40.4179378102981,-86.8391090237563,0
9408496c-cbc9-42e9-a09b-d4b01fb77882,"BUS771","Starbucks Coffee on Creasy Ln - BUS771","",40.4152609655416,-86.8390285574811,0
87526cc9-6c7b-4434-aef9-ad038ef21a10,"BUS763W","Creasy Ln & Fortune Dr (Southwest of) - BUS763W","",40.4111370689355,-86.8389065169636,0
e81f6d6e-7647-45d2-a538-1dab0786ca87,"BUS775SW","Stinger St & Harper Dr (SW Corner) - BUS775SW","",40.4062071684722,-86.8380803965378,0
bf8256da-a2cc-4712-ad9d-3f852837dd12,"BUS200S","Harper  Dr & Julia Ln (SW Corner) - BUS200S","",40.4063117746301,-86.8344728251978,0
829d92a3-ba52-45e3-a836-a971d7708b08,"BUS765NW","Julia Ln & Sickle Ct (NW Corner) - BUS765NW","",40.404807055283,-86.8353968462584,0
3b3381f7-4b6f-4e76-b03d-24187dbb5912,"BUS766W","Sickle Ct & McCarty Ln (NW Corner) - BUS766W","",40.4030502082736,-86.8343977233409,0
b0f5490f-ee9d-4404-aae4-4d32a65e9e91,"BUS768","Creasy Ln & Burberry Dr (NW Corner) - BUS768","",40.4008856654695,-86.8386074506406,0
ed12253b-91e1-4a0c-9daa-a1d27e1a5c74,"BUS769NW","Creasy Ln & Amelia Ave (NW Corner) - BUS769NW","",40.3983389078581,-86.8385538064572,0
0c725b4a-a4b3-4d43-8e49-f44746328413,"BUS770NW","Creasy Ct & Creasy Ln (NW Corner) - BUS770NW","",40.3963862595788,-86.8385108911104,0
c95bce67-e07c-447b-890a-d8709f8611e7,"BUS915","Creasy Ln & St. Francis Way (NW) - BUS915","",40.392667376558,-86.8384639524498,0
9ed85ec0-ef2a-44d8-9db6-f5a03583fa88,"BUS499N","Creasy Ln & SR 38/25 (North of, West) - BUS499N","",40.3892609709061,-86.8387268089489,0
970b020a-aea7-477a-83f2-8258efea5a19,"BUS499","SR 38/25 & Creasy Ln (North Side, West of)- BUS499","",40.3896498912364,-86.8400410914446,0
ab9fbbba-a247-4e7d-aa2a-04f798d839bb,"BUS717","Guaranteed Transmission on SR 38/25- BUS717","",40.391039275589,-86.8429284896212,0
f7d96993-4a4d-4f53-8578-c44a6d37df66,"BUS376","Cambridge Estates on SR 38/25- BUS376","",40.3928806121874,-86.8464126793392,0
71fd2ffd-8a1b-4351-ba87-a59b695cb7bd,"BUS672","Wendy's at Tippecanoe Mall (South Side) - BUS672","",40.3932896490866,-86.848649641791,0
9d34ff02-f7bb-4f6b-9806-bebd5c1b448b,"BUS673","Dicks at Tippecanoe Mall - BUS673","",40.392557,-86.849441,0
368eef5b-9e47-4c16-af17-b54fdef0e38d,"BUS257","Meijer Store East (at Shelter) - BUS257","",40.41539,-86.8138,0
3587a0a5-9eb6-4177-a361-c31d8b210250,"BUS299","Meijer Ct & Meijer Dr (NE Corner) - BUS299","""Meijer Ct & Meijer Dr (SN Corner) BUS299""",40.4167898247713,-86.8140719422145,0
2f44076e-e3f6-45f2-bc45-85bec1a7608e,"BUS277N","SR 26 & Frontage Rd (East of) - BUS277N","",40.4176441083934,-86.8164698372167,0
581b3043-2f9b-4384-b2eb-f2666788cfe1,"BUS386","South St & Red Cloud Trl (East of) - BUS386","",40.417798335421,-86.8245915665979,0
3017e576-d191-4025-9144-9ebc33d2e189,"BUS406","South St & Brinker St (West of) - BUS406","""South St & Brinker St - BUS406""",40.4178519796045,-86.8295093971198,0
b57dafe2-633e-44e0-b1be-a8c55329b6f6,"BUS806","South St & Eastland Dr (West of) - BUS806","",40.4177943121072,-86.8338532348784,0
9f4c2ef4-d2c2-45dd-8ee7-013b11153ab2,"BUS377","South St & Creasy Ln (Northeast of) - BUS377","",40.4177379857146,-86.8379127584644,0
d0b6bcf7-3efd-4445-a6a5-4d63b9b1b357,"BUS831","South St & Creasy Ln (West of) - BUS831","",40.4177540789696,-86.8392565452609,0
ac9b49cc-4ec8-4261-9650-346372cef815,"BUS302","South St & Executive Dr (West of) - BUS302","",40.4177125047274,-86.843884697192,0
4ab0c987-31be-4e80-9ea2-ee3dd282fa90,"BUS811","Target on South St(@ 5th/3rd Bank) - BUS811","",40.4177031169953,-86.8479978649615,0
d62f692a-4440-4836-a706-1f260c43cf28,"BUS411","(North of) 36th St & South St - BUS411","",40.4181269060449,-86.8498459070829,0
d9ec61b8-cce2-4409-a333-f6c1edd53fc4,"BUS813E","36th St & Coleman Ct (East Side) - BUS813E","",40.4221180332969,-86.8507940680262,0
de2b7848-b1ee-4299-a8ae-0e240d58b406,"BUS552SE","36th St & Union St (SE Corner) - BUS552SE","""36th St & Union St (SE Corner) BUS552SE""",40.4247707381708,-86.8503541857215,0
de1f3aaa-f273-4e82-995b-d7462e2d5115,"BUS793","RRX on Union St (NE Corner) - BUS793","",40.4249464228717,-86.854750326559,0
a843e06e-04e7-4d6f-8378-c1b121572ef5,"BUS382N","(Northwest of) Union St & Sagamore Pkwy N- BUS382N","",40.4249544694993,-86.8592752134368,0
3ad3fa89-32ef-4024-96ce-988868727c5a,"BUS196W","Earl Ave & Union St (Southwest of)  - BUS196W","",40.4243469491212,-86.8606780088352,0
9cb1a508-06a4-4e65-ad81-14dbc526a7ca,"BUS507W","Portledge Commons Apts on Earl Ave - BUS507W","""Portledge Commons Apts on Earl Ave BUS507W""",40.4220482958584,-86.860636434593,0
ab8afeed-96dc-4a26-8827-92e61c6f4600,"BUS459NW","Earl Ave & Cason St (NW Corner) - BUS459NW","",40.4205395531976,-86.8606029069783,0
c537716d-589f-4fb8-96dc-e3074d1ebcf4,"BUS487W","Ferry St & Earl Ave (NW Corner) - BUS487W","""Ferry St & Earl Ave (NW Corner) BUS487W""",40.4191327344854,-86.86074372296,0
aad4c8bc-e20d-402b-8786-528146b633e7,"BUS116","Ferry St & 28th St (NW Corner) - BUS116","",40.419079090302,-86.8653396883809,0
7ae382bb-a27b-4c3f-b2ec-52f2f0d3813f,"BUS542","Ferry St & 26th St (NE Corner) - BUS542","",40.4190415393735,-86.86752032444,0
acdfec61-0c1e-44c7-8818-de99ebcb713b,"BUS545N","Ferry St & 24rd St (NW Corner) - BUS545N","",40.4190469037918,-86.8700670820515,0
9456d922-8a1c-490a-affa-a0c03e8e1b1e,"BUS548NE","Ferry St & 21st St (NE Corner) - BUS548NE","",40.4189798485625,-86.8734453245071,0
a6dee29e-fc62-4f9b-b952-fc42155c82c9,"BUS280N","Ferry St & 19th St (West of) - BUS280N","",40.4189315687973,-86.8760323152561,0
385336e1-dd50-44f4-ba2f-82ca430b7092,"BUS798NE","Ferry St & Asher St (NE Corner) - BUS798NE","",40.4193298768598,-86.8789398300016,0
ce9f5e0e-1fba-4b58-b85a-70b3d74679cb,"BUS797N","Ferry St & Perrin Ave (West of) - BUS797N","",40.4200822365333,-86.8818848956755,0
ddce2839-45d3-4871-b9c5-b5685f4280dc,"BUS796N","Ferry St & Erie St (West of) - BUS796N","",40.4200661432783,-86.884294860619,0
ecd1e334-deb4-4e98-9bbe-ba338f8325e0,"BUS794N","Ferry St & 10th St (Northwest of) - BUS794N","",40.4200580966507,-86.8863346806964,0
5bf4cf47-7164-4891-9877-fd489d3bb1ed,"BUS532NE","Ferry St & 8th St (NE Corner) - BUS532NE","",40.4200513911278,-86.8882511191518,0
eacacc2f-780c-465f-8758-6900bc94335a,"BUS534N","Ferry St & 6th St (NE Corner) - BUS534N","",40.4200782132195,-86.8906356031081,0
0875bdaf-5731-41cc-bead-db0a8049500c,"BUS549N","Fowler House Apts on Ferry St - BUS549N","""Fowler House Apts on Ferry St BUS549N""",40.4200527322324,-86.8928752477691,0
0d9a934c-8d1d-49cb-a356-04aed3a014c1,"BUS863","Schuyler Ave & 21st St (NE Corner) - BUS863","",40.4424880708747,-86.8726648016372,0
582a7aa0-3e64-4731-9386-612a0b7d7b1f,"BUS227","Schuyler Ave & 20th St (NE Corner) - BUS227","",40.4418443406728,-86.8744699284118,0
c17f2062-b698-483f-ac0c-5238cdd9af99,"BUS858","Schuyler Ave & 18th St (NE Corner) - BUS858","",40.4405461514322,-86.8775651977995,0
f94a33cf-0747-4577-b3f0-b97a7f7a3fb9,"BUS859","Star Lanes on Schuyler Ave - BUS859","",40.4397723340852,-86.8794507908494,0
f9abe828-6549-4277-825c-7d73a057b104,"BUS860","Schuyler Ave & Barbee St (at Shelter) - BUS860","",40.4386431240227,-86.8812653053561,0
11856503-bd94-42b9-b40a-b3c697e9c7f9,"BUS861","15th St & Hart St (NW Corner) - BUS861","",40.4362532756479,-86.8815134097048,0
6ca4b24e-eb1e-402d-912d-48296d129faa,"BUS862","15th St & Ball St (NW Corner) - BUS862","",40.4332974811374,-86.8814745176717,0
ed3d95d7-3d26-47d5-b85d-35e573c3a899,"BUS348","15th St & Greenbush St (NW Corner) - BUS348","",40.4321749765977,-86.8814450133708,0
86b2646e-ca27-47c0-b930-edcb205dbf9e,"BUS508SW","14th St & Greenbush St (South of) - BUS508SW","",40.4319939274784,-86.8823556233856,0
8770d6f8-5d07-4cae-86ca-6d2a2dc79d54,"BUS787","14th St & Howell St (NW Corner) - BUS787","",40.4303001123846,-86.8823314835031,0
37b35cd5-1634-4388-9124-3875ba9a8b58,"BUS786","St Anthony Health Care - BUS786","",40.4291132348247,-86.8823301423985,0
e167989f-21b8-4a75-91e5-2804ec6279df,"BUS546N","14th St & Hartford St (NW Corner) - BUS546N","",40.4278069989566,-86.8823274601893,0
b3313ea5-eb97-499a-aec4-e2ae185a1049,"BUS842","Village Pantry on Salem St - BUS842","",40.4257966831801,-86.8824427951838,0
c5df9a0a-23e2-4b25-b1cd-eae4bff5bbac,"BUS843","Salem St & 11th St (NE Corner) - BUS843","",40.4257349923691,-86.8845188250851,0
109c28e7-483d-4dc2-9a38-d5a94f4c7489,"BUS367NW","9th St & Union St (NW Corner @ Shelter) - BUS367NW","",40.424743916079,-86.8869757286892,0
208a3d24-5385-489a-b6e1-7d8775a103b1,"BUS783NW","9th St & Cincinnati St (NW Corner) - BUS783NW","",40.4228060199503,-86.8869609765387,0
723034a6-23cc-464b-b212-946b0ab80761,"BUS220NW","Brown St & 9th St (NW Corner) - BUS220NW","",40.4218980921446,-86.8869542710158,0
0180e93b-7a75-424b-92f8-50311cc69976,"BUS748","Brown St & 7th St (NE Corner) - BUS748","",40.4218954099354,-86.8892971807299,0
a5d7836a-93e7-45e2-bf69-8ee59bcedf80,"BUS410NE","Brown St & 6th St (NE Corner) - BUS410NE","",40.4218793166804,-86.8906181687485,0
09d6b281-b16c-4043-aa26-00e515a00508,"BUS492","Brown St & 4th St (NE Corner) - BUS492","",40.4218417657519,-86.8931032355489,0
0ef78f9a-fbbd-4bd8-9ee1-ab1dced95119,"BUS939","South St & 16th St (SW Corner) - BUS939","",40.4172444592264,-86.8786796557116,0
b6b61809-0ef8-484c-8b63-ad832f60a5a2,"BUS391NW","Alabama St & Main St (NW Corner) - BUS391NW","""Alabama St & Main St (NW Corner) BUS391NW""",40.4164760062978,-86.8777328358729,0
d84a65f3-ac42-4758-88a2-c91b5fb9d2a0,"BUS444SW","Main St & Jackson St (SW Corner) - BUS444SW","",40.4153079042022,-86.8764091656452,0
548211ae-94af-453b-9b6d-b931cbda6282,"BUS482NW","Main St & Scott St (NW) - BUS482NW","",40.4138300069469,-86.874748878166,0
5ef927ac-1a8c-4144-b376-39500984bcb7,"BUS947","Main St & Congress St (North of) - BUS947","",40.4114777095006,-86.8721793217766,0
5d9ee6a4-f23b-420e-be76-362b24df63e8,"BUS216W","Main St & 24th St (West of) - BUS216W","",40.4095907753462,-86.870029531123,0
a8291d4d-9427-44ea-897c-2540e9a208df,"BUS663SE","Main St & 25th St (Southeast of) - BUS663SE","",40.4075455908504,-86.8672963599739,0
6089c983-e2cb-4699-a1ff-b77d231b8521,"BUS664SE","Main St & 28th St (Southeast of) - BUS664SE","",40.4059255365089,-86.8650580564176,0
f881a2ed-647b-442b-afbb-9e020167ec64,"BUS531SW","Main St & Earl Ave (SW Corner) - BUS531SW","",40.4048446062115,-86.8636230745091,0
6effb5d4-77ae-47e7-884f-e0a9fca903d6,"BUS525","Main St & McCarty Ln (West Side) - BUS525","",40.4027015210808,-86.8605626738407,0
1b7db01f-0ba5-414d-8ab8-8d0f692846b3,"BUS667","KMart in Lafayette Marketplace - BUS667","",40.4001,-86.8525,0
e6f70889-aa9f-427b-9a5f-2ea076ae2e2a,"BUS141","SR 38/25 @ Shoe Carnival - BUS141","",40.39692,-86.85249,0
d52f8bb8-3571-4d07-a204-62d62c13dd05,"BUS948","Professional Ct & SR 38/25(SW Corner) - BUS948","",40.3949244555786,-86.8495843916884,0
75bb2635-bc8f-470d-918d-fb1fbb6440c0,"BUS421SW","SR 38/25 & Kingsway Dr (SW Corner) - BUS421SW","",40.3942324456115,-86.8485852687708,0
48a74fbb-4dbf-4e47-a6cd-c03e243f65c7,"BUS564","4th St & Wall St (SE Corner) - BUS564","""4th St & Wall St (SE Corner) BUS564""",40.4236535980495,-86.8930455680517,0
1017f297-bdb1-4efc-a58e-11865a0a5852,"BUS519W","Fannon & Salem St (NW Corner) - BUS519W","""Fannon & Salem St (NW Corner) BUS519W""",40.4257215813232,-86.8914925689395,0
1e34725a-d553-4c40-9dbc-afc29950c3f2,"BUS359","Littleton St & Fowler Ave (NW Corner) - BUS359","""Littleton St & Fowler Ave (NW Corner) BUS359""",40.42657720605,-86.9037006439984,0
a752cf6a-1521-4eed-8a8e-8989a2099205,"BUS566","Purdue West on State St - BUS566","""Purdue West on State St BUS566""",40.4242946460423,-86.9297864693276,0
c4fa5654-c36e-4ca4-9d34-3dfc88ddbd5b,"BUS504","Purdue West on McCormick Rd - BUS504","""Purdue West on McCormick Rd BUS504""",40.4255432144131,-86.9304851848176,0
74ebc6d2-c20b-4eb8-a698-677b4c89d6a7,"BUS251E","McCormick Rd & Stadium Ave (NE Corner) - BUS251E","",40.4312670487921,-86.9326631386675,0
2f33c48f-7360-49db-820d-acbd066341c0,"BUS906E","Schwartz Tennis Cntr on McCormick - BUS906E","",40.4358992240369,-86.9358160755525,0
898b0487-f27b-4724-ba1b-aec3e0e3bfed,"BUS393","SW Blackbird Farms Apt Buildings (E) - BUS393","""SW Blackbird Farms Apt Buildings (E) BUS393""",40.442921,-86.942472,0
458fc597-fc21-46f8-b1fd-3ff3ae55a98b,"BUS236E","Blackbird Farms@ McCormick & Kestral - BUS236E","""Blackbird Farms@ McCormick & Kestral BUS236E""",40.4449060824458,-86.9433825876345,0
c92e62da-162d-46d2-81fb-8c0e74dff4ac,"BUS103","Blackbird Farms on Kestral Blvd (@Shelter) -BUS103","""Blackbird Farms on Kestral Blvd (@Shelter)  BUS103""",40.4452266064421,-86.9414929712709,0
b0e9552b-b432-4bd0-92ab-f4312582074d,"BUS106","Kestral Blvd at Sandpiper (SW Corner) - BUS106","""Kestral Blvd at Sandpiper (SW Corner) BUS106""",40.4438412454034,-86.9382676147382,0
4a61c093-0c35-443b-a638-bd77bedacbb0,"BUS551","Lindberg Rd & Kestral Blvd (Northwest of) - BUS551","",40.4460956422147,-86.9374830685546,0
a3e11d61-b15d-4239-9e6b-1d83179c48d2,"BUS308","Willage West Apts on Lindberg (at Shelter)- BUS308","",40.4460983244239,-86.9401330912192,0
3789de4b-cd1d-4053-aa11-92c058216c5c,"BUS300","McCormick Place Apts Lindberg (@ Shelter) - BUS300","""McCormick Place Apts Lindberg (Shelter) BUS300""",40.4461023477377,-86.9435260858253,0
5fff7aec-5b71-46e0-b2e6-c998df898fa6,"BUS905","Lindberg Rd & Robin Hood Ln (NE Corner) - BUS905","",40.4459950593707,-86.9520501465827,0
f042e2ce-846e-4967-a364-7097df3a8eb2,"BUS498","Lindberg Rd & Wake Robin Dr (NE Corner) - BUS498","",40.4459534851285,-86.9543742808327,0
0109cfb7-e36e-49ad-bbd5-ff8f2f058407,"BUS904","Lindberg Rd & Longspur Dr (NE Corner) - BUS904","",40.4459293452459,-86.9566782985138,0
fba22293-1c14-4748-a1a4-bb5eac2b37f1,"BUS195","Lindberg Rd & Klondike Rd (NE Corner) - BUS195","",40.4458475378661,-86.9617651082137,0
f02f585b-3c3e-4cc8-b035-d48a00fb7ff2,"BUS268","Copper Beech Apts Klondike (SE Corner) - BUS268","""Copper Beech Apts Klondike (SE Corner) BUS268""",40.4543166133354,-86.9618965364633,0
8ab8d903-c975-44c5-8fb7-de0111e2b2fd,"BUS481","Point West on Klondike Rd (NE Corner) - BUS481","""Point West on Klondike Rd (NE Corner) BUS481""",40.4565374825321,-86.9619099475092,0
bae1aef6-ae8f-4951-978b-9a1b9d0a7eff,"BUS464","Pemberly Cts on Klondike Rd - BUS464","""Pemberly Cts on Klondike Rd BUS464""",40.4586980020224,-86.9619582272743,0
d382666f-69d4-4a28-96a7-5ba81d9cecd4,"BUS204","Lafayette Blind on Klondike Rd - BUS204","""Lafayette Blind on Klondike Rd BUS204""",40.460242954507,-86.9619770027385,0
8211b601-4b95-4327-a685-e8548c36d0ab,"BUS317","Klondike Schools (SE Corner Center Drive) - BUS317","""Klondike Schools (SE Corner Center Drive) BUS317""",40.464838919928,-86.9619032419862,0
f4a3a833-8a15-4b90-84ca-eed2af75c5f1,"BUS342","Klondike Rd & US 52 (SE Corner) - BUS342","",40.4672515670807,-86.962037352445,0
bc39e256-bf8a-4dec-bccc-c26c423f6db3,"BUS170","US 231/52  & Wyndham Way (East of) - BUS170","",40.467302529055,-86.9580958460626,0
897290a7-909d-4031-be9f-1e95af149662,"BUS283","Sagamore Pkwy W & Hunter Rd (SW Corner) - BUS283","",40.4673749487027,-86.9494028061272,0
88199d1b-9fde-4199-a98f-8da0c18f6886,"BUS390","Sagamore Pkwy W & Morehouse Rd(SW Corner) - BUS390","",40.4668760577962,-86.9402269685404,0
4500b346-f8c3-426d-a117-a4d0473edf5d,"BUS250","(South of) Sagamore Pkwy W & Geddes Way - BUS250","",40.4637901761407,-86.9361325762351,0
05d00ab0-ba31-46b3-af9a-6dcee32b2796,"BUS137","Four Points Sheraton Cumberland (NE Corner)-BUS137","""Four Points Sheraton on Cumberland (NE Corner)-BUS137""",40.459544239017,-86.9350087305909,0
5bf596d2-951f-4e0d-9b54-2346ce30edc6,"BUS150","Alabama & 4th St (SW Corner) - BUS150","",40.4163874933951,-86.8930723901434,0
16a7f811-f748-47c2-81f5-8136817653fc,"BUS109","(North of) Romig St & 4th St - BUS109","""(North of) Romig St & 4th St BUS109""",40.413839394679,-86.8930227692737,0
358ec15a-d8a5-461d-af0e-41995e53bf77,"BUS194","Fountain St & 4th St (SE Corner) - BUS194","""Fountain St & 4th St (SE Corner) BUS194""",40.4127021379889,-86.892989241659,0
34e33170-7446-41c9-b3a0-de993af3a5b8,"BUS864","4th St & Kossuth St (NW Corner) - BUS864","",40.410062844161,-86.8930375214241,0
60823020-7f79-442f-b14e-8d138aa661f7,"BUS240","4th St & Fairmont St (NW Corner) - BUS240","",40.4086506610305,-86.8929691250902,0
b7b20fd8-25ca-4191-a6bf-ebc063b00d0a,"BUS197","Village Pantry at 4th St & Central St - BUS197","",40.4063841942778,-86.8929758306131,0
310f6571-7ec2-4e6f-97ed-0b43d22b4b06,"BUS399","4th St & Owen St (NW Corner) - BUS399","",40.405259007529,-86.8930482502608,0
e20b3b27-b1ba-474b-a854-fde30baba4c7,"BUS121NW","4th St & Murphy St (NW Corner) - BUS121NW","",40.4034927727874,-86.8930777545618,0
9728ad11-c5bf-457c-846d-c3d6eb167f35,"BUS264W","4th St & Montefiore St (NW Corner) - BUS264W","",40.4017761589155,-86.8931313987453,0
348b79d5-a7f4-4d3d-80fc-6a0460a91e15,"BUS665","4th St & Williams Ridge/Saw Mill Rd - BUS665","",40.3989249705628,-86.89415600265,0
97f5daff-8f67-4782-9f00-c8b162413613,"BUS261","4th St & Teal Rd (North of) - BUS261","",40.3963312742908,-86.8955132004924,0
c0b7e1b0-6aee-4806-aa86-12550b0f66d0,"BUS653NE","Old US 231S & Windy Hill Dr (NE Corner) - BUS653NE","",40.3943947192666,-86.9002164542804,0
e2c85f45-6446-4e31-b583-bcb7e1a838e8,"BUS254","Elston Rd & Old US231 (West of) - BUS254","",40.3925842280736,-86.9038146378884,0
080e71ed-ce5c-44f6-a1de-e3aca0230e00,"BUS654","Elston Rd & Powder House Ln (NE Corner) - BUS654","",40.3928765888737,-86.9072639588871,0
d94a9e55-71d0-41fd-a65b-5dac7d0415fb,"BUS270","Elston Rd & Beck Ln (West of) - BUS270","",40.3931005533398,-86.9101674503188,0
e4ca8896-de70-4169-a398-7891fdf89210,"BUS655","Elston Point Apts on Elston Rd(NE Corner) - BUS655","""Elston Point Apts on Elston Rd (NE Corner) - BUS655""",40.393363,-86.91248,0
25423b01-16a9-40e0-9268-09cbbeadb06a,"BUS147","Elston Rd & Old Romney Rd (NE Corner) - BUS147","",40.393396,-86.913419,0
5189cd9b-1ce4-4b87-940e-ab8e670f4f64,"BUS159","Old Romney Rd & SR 25 (NW Corner) - BUS159","",40.3891845279446,-86.9129274435596,0
2fd06c44-fee9-46cc-8db4-4e72ea72992d,"BUS212","Claystone at the Crossing Apts (at Shelter)-BUS212","",40.3870012096763,-86.9121241219118,0
a5c55641-b192-450e-8a6a-ba69c3631c3c,"BUS211","Twyckenham Blvd & Old Romney (NW Corner) - BUS211","",40.3847977748393,-86.9112872726492,0
79cccc3e-2f4e-4007-b276-15be88ddf4e7,"BUS658","CR 10 W & Twyckenham Blvd (SW Corner) - BUS658","",40.3846301367658,-86.906809324432,0
488cc90d-9747-4113-9eff-f64546448478,"BUS764","Twyckenham Blvd & Old US 231S (East of) - BUS764","",40.384666,-86.9042,0
96899899-dbf6-4108-b1fc-ae1653274876,"BUS703S","Twyckenham & Poland Hill (Southeast of) - BUS703S","",40.3835170199583,-86.894929819997,0
42341571-e060-45d6-989b-dc95fde52c99,"BUS704S","Quarry Dr & Twyckenham (SW Corner) - BUS704S","",40.383466057984,-86.8924085433727,0
e090231a-cf3b-4bea-a1c7-e919b4bb7fe6,"BUS705S","Twyckenham Blvd & Dover Ln (SW Corner)  - BUS705S","",40.3823194135618,-86.8874893717461,0
e1060ff4-a037-4eac-84c4-6b6c25aeecd8,"BUS340S","Twyckenham Blvd & 9th St (SW Corner) - BUS340S","",40.3818433214332,-86.885783486711,0
7aedc861-4f71-4390-8b2a-c6fb53c19202,"BUS866","Twyckenham & 18th St (SW Corner) - BUS866","",40.3815818060387,-86.8764547632012,0
274a85cd-29dc-4d11-a4e7-b16e9aee54c1,"BUS869","18th St & Normandy Dr (NW Corner) - BUS869","",40.3782317267794,-86.8763488159388,0
6d62c94a-1abe-4fa5-85b0-eb88bd2b7883,"BUS870NW","18th St & Southaven Blvd (NW Corner) - BUS870NW","",40.3770958111939,-86.8762938306507,0
79f350c8-e8ba-4ded-acfe-230a1759ce2d,"BUS871","18th St & Ortman Ln (NW Corner) - BUS871","",40.3746751174137,-86.8762321398396,0
be8349ca-c529-4e33-9c6d-1295d8289277,"BUS872","18th St & Newsom Dr (NW Corner) - BUS872","",40.3717018885435,-86.8763152883241,0
e23233a4-de2e-49fc-97b2-e92a09770289,"BUS873","18th St & Waverly Dr (NW Corner) - BUS873","",40.3696768206165,-86.8762321398396,0
af3d5317-d8e6-47c0-868d-4829eab6171d,"BUS874","Valley Lakes Center on Vet Mem Pkwy S - BUS874","",40.367103,-86.874180249821,0
eae0e51f-865a-4247-872b-92dfa164cab4,"BUS875SW","Vet Mem Pkwy S & Regal Valley Dr - BUS875SW","",40.367103,-86.8713411314095,0
b244979b-0e9c-4105-bb0e-2add6262c65e,"BUS876","Foxfire Apts on Veterans Mem Pkwy S - BUS876","",40.367103,-86.8681922178383,0
3f711a71-9119-4bbf-88b1-fc3342fd019a,"BUS877","Promenade Pkwy & Veterans Memorial Pkwy S-BUS877","""Promenade Pkwy & Veterans Memorial Pkwy S - BUS87""",40.3667344371518,-86.8628881491952,0
697a709c-99b6-4df4-a7ba-10b625d635b7,"BUS892","Pink Walrus Yogurt - BUS892","",40.366158,-86.861817,0
d9c70ad1-aa71-4518-8c10-834b5ef2d902,"BUS893","Walmart (South Lafayette) (West of Entr) - BUS893","",40.3652,-86.8606,0
e9f4b7d5-cba8-4109-a6db-9d611801757a,"BUS437W","Pay Less off SR38/25(East of Shelter) - BUS437W","""Pay Less off SR38/25 (East of Shelter) BUS437W""",40.391134,-86.84458,0
d523fda3-3dff-44ec-9e02-52a97650c009,"BUS719","SR 38/25 & Torchwood Dr (SW Corner) - BUS719","",40.3899154299447,-86.840868552975,0
4cce5375-16d0-4049-aff6-5a0fdf1fce96,"BUS941NW","Creasy Ln & Bonlou Dr (Menards Entrance)- BUS941NW","",40.3872117630966,-86.8402167761455,0
524333a9-05ae-44ed-ab89-a92dade7fbbe,"BUS142N","Ivy Tech on Creasy Ln - BUS142N","""Ivy Tech on Creasy Ln (across Shelter) BUS142N""",40.3852443626669,-86.8418126906045,0
f76389fc-a4ee-467b-af07-95856885ceda,"BUS404NE","Creasy Ln & US 52 (NE Corner) - BUS404NE","",40.3834030260684,-86.8432490136176,0
a449afb7-abe6-43cc-9a56-8f821c364527,"BUS711N","Brady Ln & Imperial Pkwy (NE Corner) - BUS711N","",40.3820190061342,-86.848964801369,0
2d639bee-db06-4838-b172-987c58813dbd,"BUS961","Village Pantry on Brady Ln (North) - BUS710N","",40.3819559742186,-86.8586703752679,0
7c3e5849-9a18-40ca-a190-086e61ffcb45,"BUS301N","Pheasant Run Apts on Brady Ln (at Shelter)-BUS301N","",40.3819278110223,-86.8612359083436,0
dcdc2faf-d7a1-434b-ae4e-93447d683755,"BUS720","Brady Ln & Portsmouth Dr W (NE Corner) - BUS720","",40.3818647791066,-86.8660410860801,0
14c3e7a2-298c-49ab-a2da-2788c2b2f6cc,"BUS449N","Brady Ln & Commanche Tr (NE Corner) - BUS449N","",40.3818124760278,-86.8692597370899,0
d618df46-50ca-4cb4-ab55-12f0b7b9a9a2,"BUS735E","Commanche Tr & Shasta Dr (SE Corner) - BUS735E","",40.3824776639031,-86.8693670254569,0
da7d38de-c25b-49d2-a3be-8bc352940a99,"BUS736","Commanche Tr & Yuma Ave (SE Corner) - BUS736","",40.3847924104209,-86.8695789199816,0
1f3d79e9-04c9-44df-90a5-c49e8bb267e1,"BUS731E","Commanche Tr & Beck Ln (SE Corner) - BUS731E","",40.3880687289279,-86.8699302893836,0
e4faf925-53a9-4991-acbf-4b6bff463fc8,"BUS737","Summerfield Dr & Maumee Pl (SE Corner) - BUS737","",40.3888505929023,-86.8710447472956,0
c78ba117-9e50-4464-9608-c819fd24efbe,"BUS942","Ottawa Dr & Summerfield Dr (SE Corner) - BUS942","",40.3910339111706,-86.8710715693874,0
7a92cc45-2701-4021-b432-9d3cd9adaeeb,"BUS428N","Iroquois Tr & Summerfield Dr (NW of) - BUS428N","",40.391900264734,-86.8711748344406,0
815bbc97-3509-4649-9a1b-454780b42959,"BUS315N","Shoshone Dr & Osage Dr (West of) - BUS315N","",40.3934559460554,-86.8722705168885,0
d0b61d0d-9455-4a92-9835-e6c9eeaf0cd5,"BUS469N","Georgetown Apts on Shoshone Dr - BUS469N","""Georgetown Apts on Shoshone Dr BUS469N""",40.3934452172187,-86.8753349408707,0
c260b620-5bc5-4c57-9b16-420e31b9d729,"BUS739","Shoshone Dr & 18th St (NE Corner) - BUS739","",40.3934398528004,-86.8763769791351,0
6036cfd4-1085-4c5e-beef-8629350076c7,"BUS467","22nd St & Teal Rd (North of) - BUS467","",40.39626,-86.87161,0
967fc428-45ed-4b10-b41e-5aace6c3cfde,"BUS378NW","State St & Earl Ave (West of) - BUS378NW","",40.4015200079393,-86.8696137887009,0
0a8c4a10-4976-42b3-86ac-57a8f4e8a1c4,"BUS726N","State St & 20th St (NE Corner) - BUS726N","",40.4046501460463,-86.8741869553439,0
ab7209d9-3761-4fc8-ae7a-d5fbcf9ad288,"BUS256N","State St & 18th St (NE Corner) - BUS256N","""State St & 18th St (NE Corner) BUS256N""",40.4063439611402,-86.8767417595829,0
af0112bd-f6d3-40cc-9899-bc494e34f299,"BUS725E","18th St & Adams St (SE Corner) - BUS725E","",40.4081826155295,-86.876806132603,0
45ab2c11-9b3f-41fc-9f0b-5d1f6d30c38c,"BUS662","18th St & Congress St (NE Corner) - BUS662","",40.4113731033428,-86.8770448492196,0
ff522e94-b18e-4f30-9e43-98f1069b9b46,"BUS740","18th St & Everett St (SE Corner) - BUS740","",40.4131567724441,-86.8770770357297,0
e981a8bf-8b81-444a-a38e-8173e1560a9e,"BUS791","Promenade Pky & Vet Mem Pkwy S (South Of) - BUS791","",40.366119,-86.862619,0
2539dd64-8e49-46ee-b1b1-1db15fb546c1,"BUS880","Veterans Mem Pkwy S & Cheryl Ln (West of) - BUS880","",40.367241,-86.8656226614489,0
3888401f-97e8-45c3-8352-95537652b7bc,"BUS881","Veterans Mem Pkwy S & IFCU Dr (West of) - BUS881","",40.367241,-86.8686066191558,0
3f8b5007-6679-43a5-9131-65208c77a811,"BUS875NE","Veterans Mem Pkwy S & Regal Valley Dr - BUS875NE","",40.3672413746858,-86.8710313362498,0
298de372-7780-4d8c-913f-7dab0fb47cc7,"BUS917","18th St & Troxel Ct - BUS917","",40.3679293613392,-86.8758874759607,0
c31b54b2-a3be-440d-a556-26c37ff62f9b,"BUS883","18th St & Bridgewater Cir (SE Corner) - BUS883","",40.3707041067305,-86.8757962808488,0
56edeffb-7675-4e56-b90d-67790fe0fc66,"BUS884","18th St & Summertime Tr (SE Corner) - BUS884","",40.3743116780705,-86.8757560477111,0
6402f5ce-2660-434e-a95c-26fb4f358d21,"BUS870SE","18th St & Southaven Blvd (SE Corner) - BUS870SE","",40.3768691645187,-86.8760095164782,0
4dde4f7e-19a7-43e4-9419-7a1289ba2564,"BUS990","18th St at RRX (at Trailhead) - BUS990","",40.3792268263833,-86.876107417113,0
d33e6973-837d-4d2a-ae55-8ba35d3270d1,"BUS338","Brady Ln & 18th St (NW Corner) - BUS338","",40.3817843128314,-86.8764601276195,0
634508a9-29c8-4de3-8cf1-3bacd81c867e,"BUS340N","Twyckenham Blvd & 9th St (NW Corner) - BUS340N","",40.3819868196241,-86.8858183554303,0
bcd6cc98-1539-471d-883d-0db87e68bb96,"BUS705N"," Twyckenham Blvd & Dover Ln (NE Corner) - BUS705N","",40.3823140491434,-86.8873056404177,0
ee653636-c4c0-411a-9a19-1f6a3d64d361,"BUS704N","Rampart St & Twyckenham (NE Corner) - BUS704N","",40.3836095561749,-86.8922234709396,0
53cdab03-3308-4082-8407-00625932db56,"BUS767","Twyckenham Blvd & Polland Hill Rd - BUS767","",40.3836108972794,-86.8950666126648,0
23bc287b-e134-4349-9cb5-b47b7f83c9e8,"BUS702","Poland Hill Rd & Matterhorn (SE Corner) - BUS702","",40.3848769000099,-86.8951350089988,0
cf360002-d311-4c36-b4e2-56e0500309c9,"BUS700","Limestone &  Beck Ln (NE Corner) - BUS700","",40.387970828293,-86.8970380364083,0
72fef261-7459-48c6-afb4-d6452a31e994,"BUS336","Pay Less on Beck Ln - BUS336","",40.3879373006783,-86.9017479957192,0
8749f030-297f-40ce-adc2-5381817ece3a,"BUS343 ","McDonalds on Old 231 - BUS343 ","""McDonalds on Old 231 - BUS343""",40.3874115876801,-86.9047346356353,0
55c6c6b8-7083-4f23-825d-3ffe79b55983,"BUS239","Twyckenham Blvd & CR 10W (North) - BUS239","",40.3846985330998,-86.9066859428099,0
e89e8f0a-4500-47f1-9439-a25b44c21348,"BUS222","Old Romney Rd & Twyckenham (NE Corner) - BUS222","",40.3847910693163,-86.9111397511446,0
e7b91c3a-bd26-4e9a-be34-bc35b5ec8631,"BUS208","Old Romney Rd and SR 25 (South of) - BUS208","",40.3876301877278,-86.9122099526054,0
1ee0200d-6097-4bec-b36b-5bcbd500bc70,"BUS974","Old Romney Rd & Elston Rd (SE Corner) - BUS974","",40.3932547803673,-86.9135751970753,0
d889186f-9e2e-42bc-bf2d-789b67710ecb,"BUS975","Elston Rd &  S Beck Ln (SW Corner) - BUS975","",40.3929409618939,-86.9098724073096,0
9c3de4fe-7d45-47df-a6e5-c556c7fd6716,"BUS976","Elston Rd & Powderhouse Ln (SW Corner) - BUS976","",40.3927840526571,-86.907293463188,0
c49d3e3b-ea13-4b74-b68e-500ad982ae2f,"BUS258","Old US 231S & Elston Rd - BUS258","",40.3929597373581,-86.9021999479651,0
351df87d-dec7-46e6-af2d-dab7692bf3f7,"BUS653SW","Old US 231S & Windy Hill Dr (SW Corner) - BUS653SW","",40.3942324456115,-86.9002915561373,0
c30817e7-8ec6-446a-bc48-87fd8465e06a,"BUS907","Taylor Transmission on Old US 231 S - BUS907","",40.3952718016667,-86.8967094657844,0
7ca47c05-56a0-4c77-8410-79b673508677,"BUS910","Valley Plaza on 4th St (South Driveway) - BUS910","",40.396265560166,-86.8953415391053,0
b024762f-05dc-4d1d-a4af-ccb3484f3a3b,"BUS652","4th St & Saw Mill Dr (SE Corner) - BUS652","",40.3978467224745,-86.8944684800189,0
6009f0b8-1e3c-4c1f-b37e-46d88d6d240a,"BUS148","4th St & Thise Ct (SE Corner) - BUS148","",40.3989947080013,-86.8939883645766,0
4a938194-da40-4422-9322-94b9302f0c57,"BUS264E","4th St & Montefiore St (SE Corner) - BUS264E","",40.401644730666,-86.8929490085214,0
e5a6c358-5b6d-4dff-8f27-d0e2ad48f88e,"BUS121SE","4th St & Murphy St (SE Corner) - BUS121SE","",40.4033613445378,-86.8929060931746,0
efde8be1-ed87-4c40-9707-166eddd210cc,"BUS979","Owen St & 4th St (West of) - BUS979","",40.4051839056721,-86.8933178122829,0
74950c2f-9def-45b8-8f15-5c6ac57951fb,"BUS912","2nd St & Owen St (NE Corner) - BUS912","",40.4052174332868,-86.8952087697511,0
7519240f-4ff6-4e26-8e8b-6656cab71f16,"BUS424","Holloway Dr & Owen St (North of) - BUS424","",40.4054776075767,-86.8975758193478,0
6e15a2b6-e4d7-4519-bfcc-77f722872182,"BUS657","Holloway Dr & Washington St (North of) - BUS657","",40.4069447759953,-86.8976415334726,0
93bc109e-f8e6-47c4-a318-9cb1eac2e6f7,"BUS911","Joseph St & Washington St (SE Corner) - BUS911","",40.4081933443661,-86.8965632853844,0
ac4d3682-5d94-4b03-8899-cb5e66032aa7,"BUS310","Kossuth St & 3rd St (SE Corner) - BUS310","""Kossuth St & 3rd St (SE Corner) BUS310""",40.4099193459701,-86.894646846929,0
258312aa-126e-4f94-8276-78376f678ec6,"BUS991","South Tipp Park on 3rd St - BUS991","",40.4131715245945,-86.894162708173,0
ebc80d30-3c9a-4ec6-8323-32f9d9431881,"BUS356","Romig St & 3rd St (SE Corner) - BUS356","",40.4138300069469,-86.8941841658464,0
7be11470-0b63-43f8-a489-c78e5db11f45,"BUS165","3rd St & Alabama St (SE Corner) - BUS165","",40.4164076099639,-86.8942230578794,0
019e57c2-98c3-4965-b62d-2dc501a6843a,"BUS903","Klondike Rd & Rosewood Dr (NW Corner) - BUS903","",40.4438546564492,-86.9619957782028,0
dfb6df90-c612-42e3-ab3a-79623f460497,"BUS572","Klondike Rd & Georgeton Rd (NW Corner) - BUS572","",40.441648539403,-86.9619957782028,0
e65d99f1-03b2-44d2-9827-5f8067084a9b,"BUS175","Klondike Rd & E Pine Ave - BUS175","",40.4398849868706,-86.9620480812817,0
2eb393a0-40d0-4baf-b8a4-fd5026143511,"BUS902","Klondike Rd & Blueberry Ln (NW Corner) - BUS902","",40.4385049902502,-86.9620158947716,0
78b84144-e60e-4994-8180-4eb124019687,"BUS176","Klondike Rd & SR 26 - BUS176","""Klondike Rd & SR 26 BUS176""",40.437205459905,-86.9620266236083,0
556a32ba-44a7-4b3b-bded-6ba58235f2a6,"BUS173","SR 26 & Scarlett Dr (SW Corner) - BUS173","",40.4341839512696,-86.9555584761833,0
c551267d-72e5-437a-be1a-5cab8840b458,"BUS166","State Street Office Facility - BUS166","",40.4241404190147,-86.9347177108954,0
42556196-eb0b-4600-84dd-588758b8de54,"BUS346","State St & McCutcheon Dr (East of) - BUS346","",40.4242423429634,-86.9281932370778,0
e1fbabe6-6df8-4695-84b3-e2fd4d7eace0,"BUS388","State St & Gates Rd (West of) - BUS388","",40.4242477073817,-86.9233585550403,0
beb22f34-a41d-4706-9002-2c7e3a6b31c4,"BUS437E","PayLess Supermarket on SR 38/25- BUS437E","""PayLess Supermarket on SR 38/25BUS437E""",40.3914362425468,-86.8439986910819,0
0f250b38-cc61-4d38-a287-c6730da8ab78,"BUS772","(Northeast of) Creasy Ln & SR 38 - BUS772","""(Northeast of) Creasy Ln & SR 38  BUS772""",40.3896,-86.8383,0
20a80d08-7cc0-454b-90bb-38b5c6d6d7cf,"BUS923","St Francis Way & Creasy Ln (SE) - BUS923","",40.3925413127268,-86.8382735155984,0
0175afe9-7eb0-4d56-a623-f4487bf4f158,"BUS992","St. Elizabeth Hospital - BUS992","",40.394007,-86.836989,0
53344825-3889-4633-b2b2-be0fd57b8566,"BUS770SE","Creasy Ct & Creasy Ln (SE Corner) - BUS770SE","",40.3962186215054,-86.8383124076314,0
b306750c-8f0e-418a-b4bc-0ebe69343e35,"BUS681","Creasy Ln & Amelia Ave (NE Corner) - BUS681","",40.3982866047792,-86.8383338653048,0
3494b0ee-76cd-45fc-8449-a6ea962c2cd6,"BUS773","Creasy Ln & Burberry Dr (SE Corner) - BUS773","",40.4007287562328,-86.8384223782076,0
0fdec3c6-36a1-4075-a587-7ed216d2cb02,"BUS766E","Sickle Ct & McCarty Ln (NE Corner) - BUS766E","",40.4030542315873,-86.8342434963133,0
cab4b3d0-2759-4703-80a2-48115bc19dde,"BUS765NE","Sickle Ct & Julia Ln (NE Corner) - BUS765NE","",40.4047373178445,-86.8353056511465,0
32355e22-61b8-41d5-b702-298b88843831,"BUS200N","Harper Dr & Julia Ln (NW Corner) - BUS200N","",40.4064432028796,-86.8344983061849,0
20281c23-0753-4650-8c4e-461d1698de8f,"BUS775NE","Creasy Ln & Harper Dr (NE Corner) - BUS775NE","",40.4064016286374,-86.8385202788425,0
2b551ca9-e488-4ec3-9c7b-6a30bf68f097,"BUS539","Creasy Ln & Stinger St (SE Corner) - BUS539","",40.4090328758378,-86.8386838936021,0
c8a50b32-9da9-4eb3-a6bf-5f313eac8fec,"BUS763E","Creasy Ln & Fortune Dr (SE Corner) - BUS763E","",40.4112926370676,-86.8386959635434,0
6a2a1ccc-9d92-4578-9242-a1adc3a91d26,"BUS461","Sam's Club on Creasy Ln - BUS461","""Sam's Club on Creasy Ln BUS461""",40.4146614917911,-86.8388340973159,0
29d234f9-f700-4548-bdb9-ec31b89a8f2f,"BUS762","The Pavilions & Creasy Ln (@ Regions Bank)- BUS762","""The Pavilions & Creasy Ln - BUS762""",40.4161,-86.83887,0
9cad237d-9c9f-4869-94a5-c338be79110f,"BUS879","Creasy Ln & South St (North of, East Side)-BUS879","",40.4179404925073,-86.8388689660352,0
f36174c2-e4ea-48d9-9f01-7d198923a60f,"BUS777","Culvers on Rome Dr & Creasy Ln (North)  - BUS777","",40.4209204269004,-86.8391707145674,0
2bd8ed01-9172-4449-aee6-5422ba16f766,"BUS896","Rome Dr & Executive Dr (NE Corner) - BUS896","",40.420661593715,-86.8435883130782,0
75a9b5b3-18b3-46a9-a48b-b233d21547a4,"BUS812","Rome Dr & Shenandoah Dr (NE Corner) - BUS812","",40.4206589115059,-86.8459996191263,0
a1e8e28d-6b86-4199-a4bb-ba7f80637adb,"BUS759E","Shenandoah Dr & Driftwood Dr (SE Corner) - BUS759E","",40.4214756441996,-86.8463362363777,0
7e3e19fa-4f9a-4692-9edd-2fe16b83b652,"BUS920SE","Shenandoah Dr & Claremont Ln (SE Corner)- BUS920SE","",40.4230286433118,-86.8470899371558,0
2ac5cb73-803d-4d5a-afc8-62c687b01357,"BUS341","Shenandoah Dr & Union St (SE Corner)-BUS341","""Shenandoah Dr & Union St (SE Corner) - BUS341""",40.424874003224,-86.8471020070971,0
d915d62c-4fba-4e37-9037-6a780384fb9d,"BUS757SE","Shenandoah Dr & Navarre Dr (SE Corner) - BUS757SE","",40.4264685765784,-86.8470832316329,0
94949fb9-fb5b-422d-87f8-08e04ac0444b,"BUS051","Munger Trail on Shenandoah Dr (East Side) - BUS051","",40.4288,-86.8448,0
a63eaa92-3283-45c5-9265-8056fbb64b13,"BUS778","Shenandoah Dr & Amherst Dr (SE Corner) - BUS778","",40.4314051825646,-86.844759097383,0
2b205d55-1ae4-4d73-a1a3-cb9bed156dbe,"BUS526NE","Greenbush St & Chauncey Court (NE Corner)-BUS526NE","",40.4322447140363,-86.8474842219045,0
5e11795f-e354-433a-948f-f0d1cada74e7,"BUS780","Greenbush St & Hemlock Rd (NE Corner) - BUS780","",40.4322648306051,-86.8558379623794,0
6d7dc0c2-01f3-4040-ba1c-1ba67eaf2398,"BUS231N","Greenbush St & Sagamore Pkwy N (West of) - BUS231N","",40.4321830232252,-86.858748159334,0
32420208-f67b-44c2-ac4c-c8b055285fa7,"BUS781","DETOUR STOP 29th & Longlois (SE Corner) -  BUS781","""Greenbush St & 29th St (West of) - BUS781""",40.4328938086566,-86.861887685173,0
117e97fa-ecc8-44d7-88ae-54ce6ff27b2e,"TEMP11","Vinton St & Elmwood Ave (East Corner) - TEMP11","",40.4342912396366,-86.8635546781751,0
0f0836e2-5eff-4160-964a-474c261d513a,"BUS832","Melbourne Rd & Vinton St (NE Corner) - BUS832 	","",40.4349389931523,-86.8671032409134,0
e1178d21-732e-4641-a301-9c8487286888,"BUS312 ","Melbourne Rd & Greenbush St (at Shelter) - BUS312 ","""Melbourne Rd & Greenbush St (at Shelter) - BUS312 	""",40.4323506612987,-86.8680178742419,0
2e416e3c-803e-426d-aac9-d161870f0fc1,"BUS245NW","Market Square (WEST) on Greenbush St - BUS245NW","""Market Square (WEST) on Greenbush St BUS245NW""",40.4321508367152,-86.8709025902094,0
933fdbbc-cf99-40dc-9630-92e97457d7fa,"BUS230N","Wabash Center on Greenbush St (@Shelter) - BUS230N","",40.4321280379372,-86.8738342448374,0
55b1e4c0-e1c8-4eda-906d-8e59d0f0273d,"BUS330NE","Greenbush St & 18th St (NE Corner) - BUS330NE","",40.43210255695,-86.8774994836747,0
26482905-1c1b-48bc-ba90-a249234fe7a1,"BUS750","Greenbush St & 16th St (NE Corner) - BUS750","",40.4320998747408,-86.8797431516494,0
ece6cf6d-f9d3-49f1-ad33-a033a6c9dda7,"BUS508NE","Greenbush St & 14th St (NE Corner) - BUS508NE","",40.4320971925316,-86.88229259147,0
da870219-6a0d-44e4-a86e-daacb3903735,"BUS296","Greenbush St &12th St (Northeast of) - BUS296","",40.4321320612509,-86.884272061841,0
20e88673-a893-43a7-88f2-255b01312d00,"BUS960","TRW on 9th St - BUS960","",40.4314132291921,-86.8871822587956,0
094e179b-d658-49e0-a42a-33722aa74e9c,"BUS987NW","9thSt & Roberts St (NW Corner) - BUS987NW","",40.4297811049092,-86.8871111802525,0
92b1bfd3-cf92-4ee8-8838-672c4ce47b94,"BUS292NW","9th St & Hartford St (NW Corner) - BUS292NW","",40.4277144627401,-86.8870468072323,0
2d0650b1-e277-4211-b38e-1fbbccad5e44,"BUS380NW","Salem St & 9th St (NW Corner) - BUS380NW","""Salem St & 9th St (NW Corner) BUS380NW""",40.4257457212058,-86.8869985274672,0
8758c139-2453-4aab-8f3d-1fb297277b43,"BUS698","Historical Museum on 9th St - BUS698","",40.4163901756042,-86.8867745630011,0
2fc8949c-9b4a-4c48-89be-e0242a6bcf2b,"BUS683","9th St & Hitt St (NW Corner) - BUS683","",40.4133874424331,-86.8866471580653,0
f41ca03b-279a-41f4-afc3-a316daf2f40e,"BUS253E","Kossuth St & 9th St (East of) - BUS253E","",40.4099448269573,-86.8864017359258,0
c183768d-9b0a-48fe-97cc-084172ab184b,"BUS288","Kossuth St & 11th St (SW Corner): BUS288","",40.4099434858527,-86.8841956188795,0
a2834d54-fa90-4eb2-b0b4-8f1ab55a2eeb,"BUS108","Kossuth St & 14th St (SW Corner) - BUS108","",40.4099676257352,-86.8817440796938,0
e069913a-0c30-4b29-9519-3f067f9a0bdd,"BUS210","14th St & Adams St (NW Corner) - BUS210","",40.4081866388432,-86.8817118931837,0
1a7d3261-b33e-4b96-8cc7-b9632c2a6145,"BUS182","14th St & Central Ave (NW Corner) - BUS182","",40.4064069930558,-86.8816502023727,0
7dcd5eac-03f5-467c-a877-e54858f2f0ea,"BUS303","14th St & King St (NW Corner) - BUS303","",40.4046018662812,-86.8815670538883,0
8dc24bfe-42fa-4598-b304-7d35fcfdbc43,"BUS857","14th St & Logan Ave (NW Corner) - BUS857","",40.4026787223028,-86.8815040219726,0
072e1078-9da2-4d11-bbca-4336a49af2df,"BUS327SW","Logan Ave & El Prado Ave (SW Corner) - BUS327SW","",40.4025821627725,-86.8795004117191,0
c59d595a-d09e-4853-b8d6-cdc07c8e4454,"BUS986S","Logan Ave & 18th St (SW Corner) - BUS986S","",40.4025982560276,-86.8767471240012,0
df8dfa4d-3e0f-4b50-9665-919a80b195bd,"BUS815","18th St & JR Hiatt (NW Corner) - BUS815","",40.3975892303937,-86.8767363951645,0
37571e60-d285-4a91-b189-3907848f0905,"BUS187NW","Teal Rd & 18th St (West of) - BUS187NW","",40.3956258532778,-86.87676724057,0
e26c614b-479c-431b-8d28-dac1674c9a0a,"BUS381","Pizza King on Teal Rd - BUS381","",40.395494,-86.879744,0
8133cf15-7c69-4dab-9cf5-a3131f5d8a25,"BUS494","Fairgrounds on Teal Rd (NE Corner) - BUS494","",40.395486,-86.881218,0
645f92a4-08b6-481f-ab92-3261bdf84a1c,"BUS515","Teal Rd & Crestview Ct (NE Corner) - BUS515","",40.3954662618319,-86.8832568456684,0
958c14e9-d968-4603-8a53-9a88d1bb249c,"BUS316","9th St & Rosemont St (NW Corner) - BUS316","",40.3947890040153,-86.8860718241973,0
a2bd8569-d1fb-4b05-add6-de6b272fdb52,"BUS693","9th St & Sarasota Dr (SW Corner) - BUS693","",40.3931206699086,-86.8860503665239,0
f584353f-5872-42e9-a56a-33bb3f0ec998,"BUS679","Bishop Woods on 9th St (West Side) - BUS679","",40.389712923152,-86.8859551480982,0
111739f8-e115-4442-bf56-86e97317afd8,"BUS537","Beck Ln & 9th St (Southeast of) - BUS537","",40.387925230737,-86.8855152657935,0
48209f1e-90cc-43ab-8901-af1c1f836311,"BUS521","Beck Ln & Davis Dr (SW Corner) - BUS521","",40.3879654638747,-86.881746761903,0
18d63710-50f4-4942-9ed3-6460b03d8653,"BUS433","State St & Northwestern Ave (NE Corner) - BUS433","",40.4237769796715,-86.9077869896762,0
814fe1cd-af96-4663-894e-04c67e2207c2,"BUS530S","McDonalds on Stadium Ave - BUS530S","",40.4313247162893,-86.9131487258165,0
15800cf9-370c-4d0a-8ad5-5dc24c3b26d0,"BUS622","Stadium Ave & Grant St (SW Corner) - BUS622","",40.4312858242563,-86.9104759043739,0
e7d5acac-a9e3-4262-bc4b-ad770a9644b6,"BUS635","Stadium Ave & Vine St (SW Corner) - BUS635","",40.4307721811993,-86.9082000498891,0
fc100d22-c77e-4c33-a69d-c27c3d7f061d,"BUS061","Stadium Ave & Salisbury St (SW Corner) - BUS061","",40.4307788867223,-86.905743146285,0
7c0595ee-469d-4fbf-92d3-8453d2b5444b,"BUS636SE","Salisbury St & Dehart St (SE Corner) - BUS636SE","",40.4326296110529,-86.9057002309382,0
61122b20-082f-442a-8924-cf14850b6426,"BUS333SE","Salisbury St & Robinson St (SE Corner) - BUS333SE","",40.4350784680294,-86.9057914260502,0
6d9827c2-8820-4842-8a5d-27a7746f3848,"BUS610","Salisbury St & Kent Ave (SE Corner) - BUS610","",40.4547068747703,-86.9155922183747,0
d46aef06-b964-4632-9c27-ebf6a1be4869,"BUS314","Salisbury St & Barlow St (SE Corner) - BUS314","",40.4565146837541,-86.9155506441325,0
d919ec6e-a225-469f-891a-ace27ef0443b,"BUS427","Westminster Village N & Salisbury (East) - BUS427","",40.4586108302242,-86.9155734429105,0
03a490c9-3a86-4a42-abab-d78998f3bcc6,"BUS418","Cumberland Ave & Salisbury St (West of) - BUS418","""(West of) Cumberland Ave & Salisbury St - BUS418""",40.460649309197,-86.9161903510207,0
43b5d4d5-bd8d-42b7-828d-db07c151c9b4,"BUS594","Cumberland Pointe on Cumberland Ave(North)- BUS594","""Cumberland Pointe on Cumberland(North Side)-BUS594""",40.460649309197,-86.9184152435312,0
2838026d-100a-48a1-a725-0815944ab61d,"BUS541","Cumberland Ave & Browning St (NE Corner) - BUS541","",40.4606895423346,-86.9212516797335,0
b4603757-133f-41f3-94ad-5d48f8346a36,"BUS218NE","Cumberland Ave & Yeager Rd (East of)  - BUS218NE","",40.4607646441915,-86.9243643834808,0
afd176a7-1691-4d28-b36a-d46950910443,"BUS455N","Salem Courthouse Apts (at Shelter) - BUS455N","""Salem Courthouse Apts (at Shelter) BUS455N""",40.4607431865181,-86.9267904416794,0
36bc47ee-e93a-4fda-b4af-4868277594fc,"BUS511NW","Cumberland Ave & Kent Ave (West of) - BUS511NW","",40.4607378220998,-86.9307171959112,0
d8b3ac3f-1246-4f9b-adad-5404e07878ca,"BUS641","White Horse Center - BUS641","""White Horse Center """,40.45901,-86.937837,0
5938fb30-48db-4e37-8e27-321c7d9d3392,"BUS686","The Ivy Apts on Cumberland Ave (@Shelter) - BUS686","",40.459277,-86.940122,0
2b71e0a9-c876-4817-ab47-caf6c553d011,"BUS223","Lodge Apts on Cumberland Ave (@Shelter) - BUS223","""Lodge Apts on Cumberland Ave (@Shelter) BUS223""",40.4592773592041,-86.9401223623826,0
5746ec96-dbe1-4e8b-9819-ec1c1faede44,"BUS899","Morgan & Jischke Dr (NW Corner) - BUS899","",40.4234269513742,-86.9218873633079,0
4c1f6d2d-bc2c-4a49-8f92-682cdc2e639e,"BUS900","Discovery Learning Center - BUS900","",40.4210786772417,-86.9218712700529,0
ddc941bd-47e0-4f01-96e0-a3fb396560db,"BUS543NE","Gates Rd & Nimitz Dr (NE Corner) - BUS543NE","""Gates Rd & Nimitz Dr (NE Corner) BUS543NE""",40.4209,-86.923198,0
53e8278a-0047-423c-b039-67996855572a,"BUS319N","Arnold Dr & Nimitz Dr (NE Corner) - BUS319N","""Arnold Dr & Nimitz Dr (NE Corner) BUS319N""",40.4209137213775,-86.9245990767836,0
8294d94c-bbe3-45b5-8821-a7d5e34b5dee,"BUS272N","Halsey Dr & Nimitz Dr (NE Corner) - BUS272N","""Halsey Dr & Nimitz Dr (NE Corner) BUS272N""",40.4212570441518,-86.9264498011142,0
55953d6a-1000-463f-9326-905c1e59e86c,"BUS483N","Marshall Dr & Nimitz Dr (NE Corner) - BUS483N","""Marshall Dr & Nimitz Dr (NE Corner) BUS483N""",40.4218645645299,-86.9273416356648,0
613935a1-47bf-43a7-9b93-bc51c225aab1,"BUS417NE","Airport Rd & Nimitz Dr (NE Corner) - BUS417NE","""Airport Rd & Nimitz Dr (NE Corner) BUS417NE""",40.4224170996199,-86.9303577798818,0
f06ec73e-a228-4924-a2ae-c1ef7748b5d2,"BUS440","Harrison St & Russell Dr (Southeast of) - BUS440","",40.4203973961113,-86.9188095282799,0
302cde6f-5562-41a5-9ff6-0371c97392d5,"BUS324","Lynn Hall on Harrison St - BUS324","""Lynn Hall on Harrison St BUS324""",40.4203102243131,-86.9150477299123,0
b37c046d-bf8f-4c7d-a3c3-25822131075a,"BUS598","Grant St & Harrison St (SW Corner) - BUS598","",40.4202378046654,-86.9103578871702,0
25d72d6f-4fbb-4475-a68d-1fb65d1307ca,"BUS413","Ford Hall on Stadium Ave (North Side) - BUS413","",40.4314896721536,-86.9201814782728,0
2d54457e-bd4a-4e9c-8a22-87a12bae4539,"BUS510","(South of) Jischke Dr & Stadium Ave - BUS510","""(South of) Jischke Dr & Stadium Ave BUS510""",40.430951889214,-86.9216486466914,0
f1f27b97-758b-4abf-a6eb-b1f08e747515,"BUS465","RSC on Jischke Dr - BUS465","",40.4283984260797,-86.9217210663391,0
96b4044c-1826-4014-b871-a33f900c472d,"BUS285","MacArthur Dr & 1st St (West Side of Street)-BUS285","",40.4254453137782,-86.9259039715471,0
7e79d9af-310d-4b75-8578-a7d02942d356,"BUS263","Purdue Village Preschool on Nimitz Dr - BUS263","",40.4221247388199,-86.9278861241273,0
c1eef328-e737-4ef9-8795-2ed578aff04d,"BUS262","Nimitz Dr & Halsey Dr (SW Corner) - BUS262","",40.4212530208381,-86.9265852526775,0
2e01ec43-7f18-4921-a33e-fae091a7a1ee,"BUS162","Northwestern & Neil Armstrong (NW Corner) - BUS162","",40.4518851907185,-86.9266415790702,0
e79b9ce9-b0e6-4f26-81f9-28f7311256b6,"BUS161","Northwestern Ave & Yeager Rd (NW Corner) - BUS161","",40.4500451952246,-86.9249008253158,0
04692010-4f29-4d99-91dd-39b23d7f0c9b,"BUS897","Northwestern Ave & Windsor Dr - BUS897","",40.4478927223618,-86.9232043280127,0
685a431d-1940-4b0e-a62b-d161bc9d2020,"BUS375W","Northwestern Ave & Lindberg Rd - BUS375W","",40.446283396857,-86.922088528996,0
6dd60448-6e73-4ec5-8f6a-d031624cb0f5,"BUS205","Lindberg Rd & Kestral Blvd (NE Corner) - BUS205","",40.4460393158221,-86.9366649947563,0
af6ad791-d8bd-4bcc-aba5-5f243f1e75a9,"BUS236W","Blackbird Farms@ McCormick & Kestral - BUS236W","""Blackbird Farms@ McCormick & Kestral BUS236W""",40.4448484149485,-86.9437218870951,0
d54cc482-b488-4808-ac1b-6bac8034f0e8,"BUS394","SW Blackbird Farms Apt Buildings (W) - BUS394","""SW Blackbird Farms Apt Buildings (W) BUS394""",40.4428448046949,-86.9426449801114,0
eb8c2fc5-4e8e-4c84-b195-452cafd4d7dc,"BUS906W","Schwartz Tennis Cntr on McCormick - BUS906W","",40.4358643553176,-86.9359273872332,0
2b7874a7-1416-47b0-8738-0a8ad8a1eee8,"BUS251W","McCormick Rd & Stadium Ave (NW Corner) - BUS251W","",40.431098069614,-86.9326872785501,0
052a1f64-d9e6-4ef8-815f-b9fe522cc093,"BUS501","McCormick Rd & State St - BUS501","",40.425552,-86.930617,0
25727d3e-d097-45fb-b77a-b30383453c51,"BUS135","Northwestern Ave & Grant St (SE Corner) - BUS135","""Northwestern Ave & Grant St (SE Corner) BUS135""",40.427721168263,-86.9103404528106,0
0ce87f9b-dc21-4f52-abcc-03f2aa93a698,"BUS402","Littleton St & Wiggins St - BUS402","""Littleton St & Wiggins St BUS402""",40.4262607053674,-86.9037060084168,0
28bb26a4-86e4-4fd8-9928-4f226a3bfa4d,"BUS347","5th & University St - BUS347","""5th & University St BUS347""",40.4292473452835,-86.9166651020446,0
3acacb86-bca7-4df6-bfb8-00d94acaa5d0,"BUS426","Stadium Parking Lot on Victory Dr(@Shelter)-BUS426","",40.4359850547305,-86.9186553012523,0
ac175f16-fee8-48a8-ba18-f17c5778ba28,"BUS561","Lambert Fieldhouse on University St - BUS561","""Lambert Fieldhouse on University St BUS561""",40.4328871031336,-86.9167053351823,0
37cc1522-0f75-482b-a003-4ae70dbae396,"BUS794S","Ferry St & 10th St (Southwest of) - BUS794S","",40.419985677003,-86.8863333395918,0
5f358fed-150b-4850-b33a-5183f23c640e,"BUS796S","Ferry St & Erie St (SW Corner) - BUS796S","",40.4199642193296,-86.8842894962006,0
23789a39-ff32-4007-8d45-f9ef7becec66,"BUS797S","Ferry St & Perrin Ave (SW Corner) - BUS797S","",40.4199803125847,-86.8819130588718,0
e3af6980-e106-41ae-8475-9c7d8f60f3cc,"BUS798SW","Ferry St & Asher St (SW Corner) - BUS798SW","",40.4192681860487,-86.8790860104016,0
a74fb367-319a-43fd-8f2b-2ce30c8b1c15,"BUS280S","Ferry St & 19th St (SW Corner) - BUS280S","",40.4188256215349,-86.8760269508378,0
661467fb-3fa2-4131-9fcc-c29bbe257c35,"BUS548SW","Ferry St & 21st St (SW Corner) - BUS548SW","",40.4188739013001,-86.8735754116521,0
54df164c-91ac-4f88-b507-a82cb782dd8f,"BUS545S","Ferry St & 23rd St (East of) - BUS545S","",40.4189248632744,-86.8711721522315,0
871c2c92-f95a-4350-ba92-83003c898b98,"BUS244","Ferry St & 26th St (SW Corner) - BUS244","",40.4190147172818,-86.8676262717024,0
6588609b-659e-4ecf-b916-354b29eba22c,"BUS116S","Ferry & 28th St (SW Corner) - BUS116S","",40.4190013062359,-86.8652981141387,0
14feab99-4ca8-41c1-8a3c-c1727297121e,"BUS128","Ferry St & 31st (West of Earl Ave) - BUS128","",40.419049586001,-86.8616865194849,0
97f11ff0-a750-42a5-a70c-ff6f4e595b24,"BUS459SE","Earl Ave & Cason St (SE Corner) - BUS459SE","",40.4204094660526,-86.8604714787287,0
eebd6b2d-47ba-46e7-a941-ce2ce54e2f97,"BUS507E","Portledge Commons Apts on Earl Ave - BUS507E","""Portledge Commons Apts on Earl Ave BUS507E""",40.4220523191722,-86.8604996419251,0
3c865e93-988a-4043-9956-165f66931920,"BUS196E","Earl Ave & Union St (East, Family Video) - BUS196E","",40.4243549957487,-86.860551945004,0
219c7db4-2c8b-4e8d-959c-02ef7e7d0cce,"BUS382S","Union St & Sagamore Pkwy N (Southwest of)- BUS382S","",40.4247465982882,-86.8592752134368,0
8daf378b-618e-488f-af1a-f8aa004e8dc6,"BUS971","RRX on Union St (SW Corner) - BUS971","",40.4247854903213,-86.8555348727426,0
7e1c4a48-ceba-499c-84e9-b1da1a427a4e,"BUS552SW","Union St & 36th St (SW Corner) - BUS552SW","",40.4244877651028,-86.8506009489656,0
18f25c3c-2cb1-4c51-9def-7c8811af9301,"BUS813W","36th St & Coleman Ct (NW Corner @ Bench) - BUS813W","",40.422134126552,-86.8510233969106,0
bbe89765-911b-4e55-b22e-699f00c45b73,"BUS405","(North of) 36th & South St (Laf Animal) - BUS405","",40.4181497048229,-86.8500618249215,0
ec841059-5d21-4886-a752-85c31a8afa15,"BUS475","South St & 36th St (Southeast of) - BUS475","",40.4174027095677,-86.8493081241434,0
344fe03f-ec52-4e7b-9e82-ac5dcf7c76f1,"BUS384","South St & Executive Dr (SE Corner) - BUS384","",40.4174389193916,-86.8437143769094,0
ef18ad57-1731-4438-82be-4c79f1f50f6d,"BUS816","South St & Creasy Ln (Southeast of) - BUS816","",40.4175099979347,-86.8379234873011,0
a26c11fa-b236-4a2a-bc44-03571e35756d,"BUS969","Commerce Dr & Fairington Ave (East of) - BUS969","",40.4157933840628,-86.8313265938357,0
315dec8b-d850-40a4-9ef5-19fc4d42723b,"BUS970","Commerce Dr & Park East (SW Corner) - BUS970","",40.4157866785399,-86.8291110890574,0
707c467b-026e-47e0-af93-7e976046e346,"BUS808","Commerce Dr & Marketplace Dr (SW Corner) - BUS808","""Marketplace & Commerce Dr (at Shelter) - BUS808""",40.4152408489728,-86.826879491024,0
367f9e7e-6810-4d78-ade4-9ed49dbf2075,"BUS503","Walmart (East Lafayette) - BUS503","""Walmart (East Lafayette) BUS503""",40.4139024265946,-86.8265147105762,0
0096c691-1d77-4fb7-b19e-a06f3bd181af,"BUS151","Progress DR & South St (SE Corner) - BUS151","",40.4174576948558,-86.82486112862,0
d69630a4-85df-49c7-8580-6db1d3479416,"BUS277S","SR 26 & Frontage Rd (South Side of SR26) - BUS277S","",40.4173664997438,-86.8167219648792,0
bd8566c3-985a-4295-9fee-9edaa21c6882,"BUS372","Meijer Ct & Meijer Dr (SW Corner) - BUS372","""Meijer Ct & Meijer Dr (SW Corner) BUS372""",40.4167455683199,-86.8142959066806,0
9e680da5-2b52-4a5b-8157-a39e67a7adf0,"BUS110NE","Shining Armor Ln & Mason Dixon(NE Corner)-BUS110NE","",40.4793966102241,-86.9345675071816,0
a982294f-f810-448d-89d2-0c2b528339df,"BUS630","Mason Dixon Dr & Military Ct (NE Corner) - BUS630","",40.4778194712293,-86.936568435226,0
abaa1534-f5cc-471d-9e40-110fc737f6b9,"BUS112NE","Mason Dixon Dr & Morehouse Rd (NE Corner)-BUS112NE","",40.4777966724513,-86.9388389252924,0
0c5fafb5-53c7-4e19-9fc4-bd0b02e25171,"BUS631W","Morehouse Rd & Abnaki Dr (West) - BUS631W","",40.4744787797021,-86.9389851056924,0
127036ba-82d9-4bfe-97ba-9878aa7b1aed,"BUS113NW","Morehouse Rd & Ellison Dr (West Side) - BUS113NW","",40.4707961065052,-86.9389462136594,0
73d07518-5edb-4011-bc7f-0108a92208a7,"BUS114W","Country Squire Apts on Morehouse (West) - BUS114W","",40.4691881221049,-86.9387973510502,0
2eacc761-758a-4e2b-b54a-fc91b4f61eee,"BUS115S","Kalberer Rd & Morehouse Rd (Southwest of)- BUS115S","",40.4677464346734,-86.9387410246576,0
a212ce12-443a-4c59-9366-b953732e819f,"BUS944S","West View Apts on Kalberer Rd (South) - BUS944S","",40.4677491168826,-86.9340257009283,0
66d38a32-3396-4af0-990c-85da22b3baa9,"BUS945SW","Kalberer Rd & Kent Ave (SW Corner) - BUS945SW","",40.467770574556,-86.9318437237646,0
53ab5e0f-115c-4c76-9333-d02280e32ab0,"BUS117SW","Kalberer Rd & Yeager Rd (SW Corner) - BUS117SW","",40.4678631107726,-86.92465942649,0
0f8d84d2-b995-485a-bd9f-89d06ab24654,"BUS118NW","Yeager Rd & McClure Ave (NW Corner) - BUS118NW","",40.4650400856161,-86.9246285810845,0
8beb3627-bd53-433d-a28c-14048e109143,"BUS129","Peppermill Apts on Yeager Rd (NW Corner) - BUS129","""Peppermill Apts on Yeager Rd (NW Corner) BUS129""",40.4619716383202,-86.9245722546919,0
e156475f-c3d1-40a5-86bf-5a6a9a1444ca,"BUS218NW","Yeager Rd & Cumberland Ave (NW Corner) - BUS218NW","""Yeager Rd & Cumberland Ave (NW Corner) BUS218NW""",40.4608357227347,-86.9245990767836,0
8a16f321-e836-4671-845b-78c14fd09f6d,"BUS626NW","Yeager Rd & Montgomery St (NW Corner) - BUS626NW","",40.458653745571,-86.9245735957964,0
06fddaf8-f122-400b-97b0-0733580d2759,"BUS100W","Beau Jardin Apts on Yeager (@ Shelter) - BUS100W ","""Beau Jardin Apts on Yeager Rd (Shelter) BUS100W""",40.4546317729134,-86.9245776191102,0
b8856b5d-e255-4de8-932c-e791a493e40f,"BUS104S","Anthrop Dr & Yeager (at Shelter) - BUS104S","",40.4519495637387,-86.924191380989,0
5b501b89-99d6-491c-bb65-34ab63f09280,"BUS101SW","Mayfair Village Apts on Sycamore Ln - BUS101SW","""Mayfair Village Apts on Sycamore Ln BUS101SW""",40.4520648987332,-86.9217492295354,0
4103fe72-9996-4fea-a326-a8d43cfb9085,"BUS624W","Sycamore Ln & Carlisle Rd (West of) - BUS624W","",40.4504582554375,-86.9194881272011,0
9322ed10-398f-4047-bad1-d048360cd51a,"BUS623NW","Carlisle Rd & Windsor Dr (NW Corner) - BUS623NW","",40.4480375616573,-86.919641013124,0
faa65e39-2583-4dee-b235-61cd60631cd0,"BUS102NW","Carlisle Rd & Lindberg Rd (NW Corner) - BUS102NW","""Carlisle Rd & Lindberg Rd (NW Corner) BUS102NW""",40.4459320274551,-86.9192547750029,0
76ec2dea-31da-43cb-be8f-2365a84f3b37,"BUS375NE","Lindberg Rd & Northwestern (Northeast) - BUS375NE","",40.4460084704166,-86.9210652661959,0
daeedfa8-80e6-4c95-aef0-91b08b42610e,"BUS375SW","Northwestern & Lindberg (Southwest of) - BUS375SW","",40.4458126691468,-86.921597684717,0
092b6d64-a066-4587-9724-f09678365947,"BUS629","Northwestern Ave & Garden St (NW Corner) - BUS629","",40.4427482451646,-86.9194881272011,0
f4cc1c8f-62c5-49e9-87fe-3e54da70e055,"BUS476","Northwestern Ave & Carrolton Blv(NW Corner)-BUS476","",40.4418590928232,-86.9190214228047,0
0d423737-e01c-42ea-9352-8736b07e87be,"BUS431","(South of) Cherry Ln & Northwestern Ave - BUS431","""(South of) Cherry Ln & Northwestern Ave BUS431""",40.4387973510502,-86.917314196665,0
0a9e0050-2175-45a5-a74f-933e19d0d25b,"BUS169","Northwestern Ave & Chelsea Rd (West Side) - BUS169","",40.4347123464771,-86.9153816649545,0
e535994e-8c58-4fd7-ae2e-c17274ca0889,"BUS543SE","Gates Rd & Nimitz Dr (SE Corner) - BUS543SE","""Gates Rd & Nimitz Dr (SE Corner) BUS543SE""",40.4209,-86.923198,0
11f020f3-e434-45c8-9bf1-22a10127ab8c,"BUS491E","McCutcheon Hall on McCutcheon (@Shelter) - BUS491E","""McCutcheon Hall on McCutcheon (at Shelter) BUS491E""",40.4256505027801,-86.9289308446008,0
b139a1d9-f1ce-4357-b48b-176d41f6f717,"BUS470","Hillenbrand Hall on 3rd St - BUS470","""Hillenbrand Hall on 3rd St BUS470""",40.427406008685,-86.9264591888463,0
eece905a-fb85-4acb-aa7d-b684b037fada,"BUS332S","3rd & Russell St (SW Corner): BUS332S","",40.4272718982262,-86.9191716265185,0
5da32a29-849a-447e-bf41-103376b3e68f,"BUS152","River Walk Apartments on 9th St - BUS152","",40.4354445895818,-86.8864996365606,0
091ea30f-1049-4805-8a40-4afd6232dc2e,"BUS325NE","Elmwood Ave & 21st St (NE Corner) - BUS325NE","",40.4286773758338,-86.8731395526612,0
40a948d5-a610-4e9f-bf0e-9859dd6ce87e,"BUS838","Speedway on Elmwood Ave (NE Corner) - BUS838","",40.4270291582959,-86.8763528392525,0
303ff795-836d-4813-b52d-c72dda6e2be0,"BUS839","(North of) 18th St & Salem St - BUS839","",40.425894583815,-86.8774082885628,0
e93b05c0-72aa-48f3-9f65-448d681af1c3,"BUS840","Salem St & 15th St (West of) - BUS840","",40.4256679371397,-86.8811727691396,0
48ba8229-9ec4-4943-9b50-daef1d652b79,"BUS380NE","Salem St & 9th St (NE Corner) - BUS380NE","""Salem St & 9th St (NE Corner) BUS380NE""",40.4257443801012,-86.8868898979956,0
a58cdcff-a78f-4b33-be99-f8e461e69e34,"BUS845","Salem St & 7th (NE Corner) - BUS845","",40.4257577911471,-86.8894286089795,0
df376b68-ea77-41b1-8c6b-fedf019d4147,"BUS519E","Salem St & Fannon (NE Corner) - BUS519E","",40.4257725432976,-86.8912833566238,0
17efbbe1-6728-4f5f-af61-49572f3e71aa,"BUS801","Village West Apts Club House - BUS801","",40.4472382633232,-86.9393780493366,0
cfa133ac-ab36-4594-9cb2-18d75a7b105a,"BUS802","Willowbrook Cir & Willowbrook Dr - BUS802","",40.4492070048575,-86.940420087601,0
bfe9d319-1c31-47d7-9f07-776270334738,"BUS010","The Cottages on Lindberg on Mida Dr - BUS010","",40.4491,-86.9414,0
87ac1fe2-21ef-4532-96d3-8e2863c0a686,"BUS723","18th St & Center St (North of) - BUS723","",40.4146319874902,-86.8772084639793,0
b4142b16-54f8-4b43-9e54-1e5611459188,"BUS940","18th St & Larue St (South of) - BUS940","",40.4135135062643,-86.8772030995609,0
061daa60-c034-4a94-9763-088ec5f52541,"BUS724","18th St & Congress St (North of) - BUS724","",40.4113731033428,-86.8772755192086,0
f41b9b90-f5a4-42e0-b1db-7a116ac3b074,"BUS495","18th St & Kossuth St (NW Corner) - BUS495","",40.410170132528,-86.8773251400784,0
c9cc23a7-980f-4d7a-8bbc-c7ca778e5990,"BUS725W","18th St & Adams St (NW Corner) - BUS725W","",40.4082402830267,-86.8768798933554,0
eaefb116-a75c-4f04-ac93-f13d67379904,"BUS256S","State St & 18th (Southesat of) - BUS256S","",40.4062487427144,-86.8767015264452,0
b497fbca-06bc-4a62-bec7-79cf7c3208b4,"BUS726S","State St & 20th St (SW Corner) - BUS726S","",40.4046085718041,-86.8742365762136,0
5750aefb-ff43-4f72-9fc7-c39b16f853e5,"BUS727","State St & 22nd St (SW Corner) - BUS727","",40.4030327739139,-86.8719191474866,0
1d4e9e92-b549-4df3-9793-c25594aaca03,"BUS378SW","Earl Ave & State St (SE Corner) - BUS378SW","""Earl Ave & State St (SE Corner) BUS378SW""",40.4014730692788,-86.8695561212037,0
4fc14a7d-e2c8-4401-8452-073031ba0b65,"BUS414","26th St & Gregory Ave (NW Corner) - BUS414","",40.39912881846,-86.8671501795739,0
4437ac19-6451-43af-97aa-d95b45a94600,"BUS311","Rural King on 26th St (at Shelter) - BUS311","""Rural King on 26th St (at Shelter) BUS311""",40.39678,-86.86699,0
706db4cb-a72b-4471-8663-9cf81bd6a642,"BUS331","Marsh Entrance on Teal Rd (NE Corner) - BUS331","""Marsh Entrance on Teal Rd (NE Corner) BUS331""",40.3955118593878,-86.8704117459304,0
ca3a0f00-8af9-4c1b-8acb-61a4051e997f,"BUS963","18th St & Meadow Dr (South of) - BUS963","",40.3945422407712,-86.8764815852929,0
024255f7-7222-48be-aea9-2e7ea111f979,"BUS469S","Georgetown Apts on Shoshone Dr - BUS469S","""Georgetown Apts on Shoshone Dr BUS469S""",40.3933902319306,-86.8753349408707,0
86510847-7ab6-4cf6-aff2-6a699522bac6,"BUS409","Osage Dr & Shoshone Dr (SW Corner) - BUS409","",40.3934076662903,-86.8722678346794,0
5146eb80-7fa9-4ad8-b0f3-f644ee963b05,"BUS729","Iroquois Tr & Osage Dr (NW Corner) - BUS729","",40.3920316929836,-86.8723214788628,0
b39e32cc-d2d0-4402-89ae-58747faa6779,"BUS428S","Iroquois Tr & Summerfield Dr (SW Corner) - BUS428S","",40.3918493027597,-86.8711694700223,0
b22a03e1-b616-4a52-993e-19a836cb1837,"BUS730","Summerfield Dr & Hiawatha Ln (NW Corner) - BUS730","",40.3895707660658,-86.8711010736884,0
74d8aea4-9a8a-4af5-b14c-38aabf1d9059,"BUS416","Beck Ln & Summerfield Dr (NW Corner) - BUS416","""Beck Ln & Summerfield Dr (NW Corner) BUS416""",40.3881263964252,-86.871062,0
8d58bc9e-29b3-4776-a8b4-7d2514630b3a,"BUS344","Beck Ln and Cayuga Trail (NE Corner) - BUS344","",40.3881693117719,-86.8751203641367,0
dc4835e6-0026-41ce-9fed-16f93e3391ad,"BUS155","Edgelea Elementary on 18th St - BUS155","""Edgelea Elementar on 18th St - BUS155""",40.3873887889021,-86.8763944134947,0
62812a29-b1cb-4a61-b76b-e3c8a110050e,"BUS807","18th St & Manitou Dr (NW Corner) - BUS807","",40.3854280939953,-86.8763018772782,0
11d49643-05cc-4396-8621-a6f45c4f9f05,"BUS865","18th St & Eastway St (NW Corner) - BUS865","",40.3836135794886,-86.8762710318727,0
322aa0fe-1f99-4775-a267-a2bbce5f652a,"BUS354","Brady Ln & 18th St (East of) - BUS354","",40.381717257602,-86.8755575642322,0
272ae52f-a122-455b-a41a-40189e14d3b9,"BUS707S","Brady Ln & Pipers Glen Dr (SW Corner) - BUS707S","",40.3816730011507,-86.8724904580409,0
2899d9ac-6b8c-4d4c-a622-4f53b282a1d5,"BUS449S","Brady Ln & Commanche Tr (SE Corner) - BUS449S","",40.3816971410332,-86.8692664426128,0
9c4a1633-65ae-412e-a181-62424686270e,"BUS181","RRX on Brady Ln (SW Corner) - BUS181","""RRX on Brady Ln (SW Corner) BUS181""",40.381701164347,-86.8668859819702,0
c53d5d4d-3baa-4711-ab9d-2304d84792fa,"BUS708","Brady Ln & Winter St (SW Corner)  - BUS708","",40.3817346919617,-86.8650661030451,0
3bee4db8-1ff1-4c73-ab43-c08f32a44c74,"BUS301S","Pheasant Run Apts on Brady Ln (South) - BUS301S","",40.3817937005635,-86.8612224972977,0
dc20552e-1f97-45f0-b57c-f2e98c810fb7,"BUS710S","Village Pantry on Brady Ln (South) - BUS710S","",40.381792359459,-86.8586636697449,0
7b88d8f4-c3e9-4c68-977d-8e2dc30c1979,"BUS711S","Brady Ln & Imperial Pkwy (SW Corner) - BUS711S","",40.3818795312571,-86.8491364627562,0
63c33f36-32e0-47e6-ac77-7e9bea51d7c2,"BUS966","Griffin Hall on Creasy Ln - BUS966","",40.3835197021675,-86.8430062736873,0
ae558f75-792f-41ab-b97f-b28a37bd65de,"BUS142S","Ivy Tech on Creasy Ln (at Shelter) - BUS142S","""Ivy Tech on Creasy Ln (at Shelter) BUS142S""",40.3851571908687,-86.8416343236944,0
04f66393-ba75-4f8f-b490-2628eeb64a38,"BUS941SE","Creasy Ln & Bonlou (SE Corner) - BUS941SE","",40.3870333961864,-86.8401054644648,0
57eb375d-8d97-4e60-a62c-5a93d5894a10,"BUS463","Kestral Blvd & Lindberg Rd (SE Corner) - BUS463","",40.4459159342,-86.9366663358609,0
49d896a2-f1c0-41e1-89b7-022ce0de46ab,"BUS144","Parkway Apts on Soldiers Home Rd(@Shelter)- BUS144","""Parkway Apts on Soldiers Home Rd(@Shelter) BUS144""",40.4543756219373,-86.9031306745488,0
dda26506-dcc5-4b8a-ba46-5c111f4645fd,"BUS595W","Parkway Apts on Happy Hollow BUS595W","",40.4514117807991,-86.9023447872606,0
3ab6da24-e8aa-4b21-bea7-bc33a56fdaf9,"BUS361NW","Happy Hollow Rd & Chippewa St (NW Corner)-BUS361NW","",40.4499607056356,-86.9011243820861,0
a9a2b5dd-57d4-41c4-8eb6-abb4825c8b8a,"BUS596","Happy Hollow Rd & Knox Dr (NW Corner) - BUS596","",40.4483004181564,-86.8998141229042,0
b0997a5d-ca7b-4fac-8067-00047baab256,"BUS597W","Happy Hollow Rd & Pathway Ln (SW Corner) - BUS597W","",40.4464429883029,-86.8994359314106,0
a6892438-1a5f-49c7-bb5d-1c2c69198b76,"BUS599W","Happy Hollow Rd & Laurel Dr (SW Corner) - BUS599W","",40.4440853264383,-86.8996733069225,0
5ec9df27-32ab-4578-bc42-a2b4125266d4,"BUS123W","Nobb Hill Apts on Happy Hollow (West) - BUS123W","",40.4396087193256,-86.8994681179206,0
1344d113-3c8f-4742-a0e6-6f89e8f0a41e,"BUS600E","Catherwood Dr & Happy Hollow Rd (East of)- BUS600E","",40.4368943236407,-86.8981350599608,0
ce445d8a-7907-495c-95d9-6d5c00fd1445,"BUS066","River Rd/Launch Apts & Dehart St(@Shelter)-BUS066","",40.4320073385243,-86.8992884099059,0
69db4f04-46f3-4264-a77e-c6b1401d4743,"BUS602W","River Rd & Robinson (Const Stop Loc) - BUS602W","",40.430535,-86.899982,0
3e5d45d3-d4f0-40e2-838b-4a9d8bd311e8,"BUS360","Harrison Bridge Ramp at Canal Rd - BUS360","""Harrison Bridge Ramp at Canal Rd BUS360""",40.4247828081121,-86.8940125044592,0
17b7dd98-eef7-4630-9085-870ecb5eee72,"BUS889NW","Marcastle Dr & Concord Rd (NW Corner) - BUS889NW","",40.359691,-86.856995,0
1a5e9235-4a3c-400b-8c47-cc87f14f4468,"BUS887","(Roundabout) Chilton Park on Chilton Dr - BUS887","",40.358605,-86.853482,0
5b31b83c-4904-4e0a-be4d-5b95e5768f81,"BUS889SE","Marcastle Dr & Concord Rd (SE Corner) - BUS889SE","",40.359691,-86.856995,0
68e1a72c-f48e-44b8-9b58-a6721b052e97,"BUS425S","Wabash Landing on Brown St (@ Shelter) - BUS425S","""Wabash Landing on Brown St (@ Shelter) BUS425S""",40.4219758762107,-86.9008186102401,0
5b3f9f5b-193f-470f-bb79-1f2f84730170,"BUS415","Purdue Airport Main Terminal - BUS415","""Purdue Airport Main Terminal BUS415""",40.4165765891419,-86.9311396438563,0
dfca9c2d-16d4-4b53-8d8e-85c2e3cfeff6,"BUS146","Aviation Technology Bldg - BUS146","""Aviation Technology Bldg BUS146""",40.4165685425144,-86.9298910754854,0
a8402143-bb4e-4658-b0cc-1cf6df9e28b4,"BUS754","Airport Rd & Halsey Dr (SE Corner) - BUS754","",40.4199199628782,-86.9304409283662,0
fab2e412-107f-470c-85ca-3271814a3796,"BUS751","Airport Rd & Nimitz Dr (SE Corner) - BUS751","",40.4223272456126,-86.930483843713,0
9719d27a-fe58-4498-96a0-e13e376967e8,"BUS289","Jischke Dr & 3rd St (SE Corner) - BUS289","",40.427342,-86.921991,0
e9deb82c-9fb6-47b7-b309-c4aee9ccf301,"BUS755","Airport Rd & Halsey Dr (West) - BUS755","",40.4199145984599,-86.9305321234782,0
1c0de926-b5c5-4b69-ba33-3c40fdd6ebd5,"BUS466W","22nd St & JR Hiatt Dr (NW Corner) - BUS466W","",40.3976106880671,-86.8717608971453,0
